,index,address,bathrooms,country,detailedType,distance,exterior,externalReference,floor,has360,has3DTour,hasLift,hasPlan,hasVideo,latitude,longitude,municipality,newDevelopment,numPhotos,operation,parkingSpace,price,priceByArea,propertyCode,propertyType,province,rooms,showAddress,size,status,suggestedTexts,thumbnail,url
0,0,Via Belvedere s/n,1,it,"{'typology': 'chalet', 'subTypology': 'independantHouse'}",599943,False,Giovanni,,False,False,,False,False,41.8919683,14.7850962,Palata,False,12,sale,,25000.0,313.0,14290868,chalet,Campobasso,3,True,80.0,renew,"{'subtitle': 'Palata', 'title': 'Casa independiente en Via Belvedere s/n'}",https://img3.idealista.it/blur/WEB_LISTING/90/id.pro.it.image.master/6f/2f/83/148030211.jpg,https://www.idealista.it/immobile/14290868/
1,1,Cuglieri,1,it,{'typology': 'flat'},599935,False,Impronte,en,False,False,False,False,False,40.0912163,8.4959759,Cuglieri,False,13,sale,,130000.0,2600.0,10448174,flat,Oristano,2,False,50.0,good,"{'subtitle': 'Cuglieri', 'title': 'Piso'}",https://img3.idealista.it/blur/WEB_LISTING/0/id.pro.it.image.master/0a/0f/f6/73606907.jpg,https://www.idealista.it/immobile/10448174/
2,2,"Via Fiume, 103",2,it,"{'typology': 'chalet', 'subTypology': 'independantHouse'}",599929,False,VRA-1577,,False,False,,False,False,41.556948,14.324693,Castelpetroso,False,9,sale,"{'hasParkingSpace': True, 'isParkingSpaceIncludedInPrice': True}",110000.0,550.0,17582375,chalet,Isernia,7,True,200.0,good,"{'subtitle': 'Castelpetroso', 'title': 'Casa independiente en Via Fiume, 103'}",https://img3.idealista.it/blur/WEB_LISTING/0/id.pro.it.image.master/49/64/f1/218690944.jpg,https://www.idealista.it/immobile/17582375/
3,3,Lungomare nord,1,it,{'typology': 'flat'},599877,False,T0009,bj,False,False,False,False,True,42.0153769,14.936035,Termoli,False,9,sale,,160000.0,2667.0,17574361,flat,Campobasso,2,False,60.0,good,"{'subtitle': 'Termoli', 'title': 'Piso en Lungomare nord'}",https://img3.idealista.it/blur/WEB_LISTING/0/id.pro.it.image.master/2f/7f/a4/218485614.jpg,https://www.idealista.it/immobile/17574361/
4,4,Contrada Pietravalle s/n,1,it,"{'typology': 'chalet', 'subTypology': 'villa'}",599650,False,131,,False,False,,True,False,41.7042057,14.5313285,Salcito,False,23,sale,,250000.0,625.0,15888256,chalet,Campobasso,7,True,400.0,good,"{'subtitle': 'Salcito', 'title': 'Villa en Contrada Pietravalle s/n'}",https://img3.idealista.it/blur/WEB_LISTING/0/id.pro.it.image.master/0b/2d/ec/185889848.jpg,https://www.idealista.it/immobile/15888256/
5,5,Acquaviva Collecroce,0,it,{'typology': 'flat'},599641,False,AG32,,False,False,False,False,False,41.8668737,14.7480721,Acquaviva Collecroce,False,9,sale,,12000.0,105.0,14968037,flat,Campobasso,5,False,114.0,renew,"{'subtitle': 'Acquaviva Collecroce', 'title': 'Piso'}",https://img3.idealista.it/blur/WEB_LISTING/0/id.pro.it.image.master/63/4a/e5/169873321.jpg,https://www.idealista.it/immobile/14968037/
6,6,Acquaviva Collecroce,1,it,{'typology': 'flat'},599640,False,AG35,1,False,False,False,False,False,41.8666859,14.747817,Acquaviva Collecroce,False,6,sale,,48000.0,632.0,14968298,flat,Campobasso,3,False,76.0,renew,"{'subtitle': 'Acquaviva Collecroce', 'title': 'Piso'}",https://img3.idealista.it/blur/WEB_LISTING/0/id.pro.it.image.master/ab/39/fb/169876272.jpg,https://www.idealista.it/immobile/14968298/
7,7,Acquaviva Collecroce,4,it,"{'typology': 'chalet', 'subTypology': 'independantHouse'}",599637,False,AG37,,False,False,,False,False,41.8671859,14.748417,Acquaviva Collecroce,False,13,sale,,380000.0,844.0,14968428,chalet,Campobasso,7,False,450.0,good,"{'subtitle': 'Acquaviva Collecroce', 'title': 'Casa independiente'}",https://img3.idealista.it/blur/WEB_LISTING/0/id.pro.it.image.master/6e/9a/05/169878370.jpg,https://www.idealista.it/immobile/14968428/
8,8,Termoli,2,it,{'typology': 'chalet'},599626,False,108 (57562466),,False,False,,False,False,42.0140005,14.9303147,Termoli,False,4,sale,,130000.0,1444.0,14608502,chalet,Campobasso,3,False,90.0,,"{'subtitle': 'Termoli', 'title': 'Chalet'}",https://img3.idealista.it/blur/WEB_LISTING/0/id.pro.it.image.master/c0/54/f5/154441830.jpg,https://www.idealista.it/immobile/14608502/
9,9,Sipicciano s/n,2,it,"{'typology': 'chalet', 'subTypology': 'independantHouse'}",599512,False,,,False,False,,False,False,41.3225611,13.9452905,Galluccio,False,40,sale,"{'hasParkingSpace': True, 'isParkingSpaceIncludedInPrice': True}",100000.0,250.0,12316584,chalet,Caserta,10,True,400.0,renew,"{'subtitle': 'Galluccio', 'title': 'Casa independiente en Sipicciano s/n'}",https://img3.idealista.it/blur/WEB_LISTING/0/id.pro.it.image.master/0b/4f/be/106406151.jpg,https://www.idealista.it/immobile/12316584/
10,10,Acquaviva Collecroce,1,it,{'typology': 'flat'},599437,False,AG34,,False,False,False,False,False,41.8690859,14.747517,Acquaviva Collecroce,False,12,sale,,12000.0,160.0,14968226,flat,Campobasso,3,False,75.0,renew,"{'subtitle': 'Acquaviva Collecroce', 'title': 'Piso'}",https://img3.idealista.it/blur/WEB_LISTING/0/id.pro.it.image.master/67/51/ca/169875480.jpg,https://www.idealista.it/immobile/14968226/
11,11,"Via Sessa, 24",2,it,"{'typology': 'flat', 'subTypology': 'duplex'}",599370,False,r391412,bj,False,False,False,False,False,41.3089488,13.9194384,Sessa Aurunca,False,3,sale,,12103.0,79.0,16772577,duplex,Caserta,8,True,153.0,good,"{'subtitle': 'Sessa Aurunca', 'title': 'Dúplex en Via Sessa, 24'}",https://img3.idealista.it/blur/WEB_LISTING/0/id.pro.it.image.master/29/e8/39/202342008.jpg,https://www.idealista.it/immobile/16772577/
12,12,"Via Alfonso Lamarmora, 11",1,it,"{'typology': 'countryHouse', 'subTypology': 'casalicascine'}",599310,False,OR1077902,,False,False,,False,False,40.0819569,8.7629837,Paulilatino,False,0,sale,,3948.0,395.0,18020438,countryHouse,Oristano,3,True,10.0,,"{'subtitle': 'Paulilatino', 'title': 'Casa de campo/granja en Via Alfonso Lamarmora, 11'}",,https://www.idealista.it/immobile/18020438/
13,13,Via SESSA s/n,2,it,"{'typology': 'chalet', 'subTypology': 'villa'}",599219,False,,,False,False,,False,False,41.3100456,13.9183831,Sessa Aurunca,False,74,sale,,850000.0,202.0,17033715,chalet,Caserta,4,True,4200.0,good,"{'subtitle': 'Sessa Aurunca', 'title': 'Villa en Via SESSA s/n'}",https://img3.idealista.it/blur/WEB_LISTING/0/id.pro.it.image.master/06/b5/74/207600325.jpg,https://www.idealista.it/immobile/17033715/
14,14,Contrada Fucilieri,1,it,{'typology': 'flat'},599122,False,(64857752),en,False,False,False,False,False,42.0093765,14.9165779,Termoli,False,0,sale,,180000.0,1800.0,13666152,flat,Campobasso,4,False,100.0,,"{'subtitle': 'Termoli', 'title': 'Piso en Contrada Fucilieri'}",,https://www.idealista.it/immobile/13666152/
15,15,"Via Civera, 2",3,it,"{'typology': 'chalet', 'subTypology': 'independantHouse'}",599108,False,,,False,False,,False,False,41.3093403,13.9150208,Sessa Aurunca,False,17,sale,,90000.0,448.0,15544457,chalet,Caserta,11,True,201.0,renew,"{'subtitle': 'Sessa Aurunca', 'title': 'Casa independiente en Via Civera, 2'}",https://img3.idealista.it/blur/WEB_LISTING/0/id.pro.it.image.master/64/b2/4c/179384910.jpg,https://www.idealista.it/immobile/15544457/
16,16,Sessa Aurunca,3,it,{'typology': 'countryHouse'},599077,False,SP63RM,,False,False,,False,False,41.3121252,13.9191539,Sessa Aurunca,False,32,sale,,265000.0,431.0,17912472,countryHouse,Caserta,22,False,615.0,good,"{'subtitle': 'Sessa Aurunca', 'title': 'Casa rural'}",https://img3.idealista.it/blur/WEB_LISTING/0/id.pro.it.image.master/0e/c2/01/225405678.jpg,https://www.idealista.it/immobile/17912472/
17,17,Via Martini,2,it,"{'typology': 'chalet', 'subTypology': 'independantHouse'}",599019,False,,,False,False,,True,False,40.0844932,8.7650368,Paulilatino,False,43,sale,,250000.0,419.0,17867113,chalet,Oristano,12,False,596.0,renew,"{'subtitle': 'Paulilatino', 'title': 'Casa independiente en Via Martini'}",https://img3.idealista.it/blur/WEB_LISTING/0/id.pro.it.image.master/0f/8e/80/224533507.jpg,https://www.idealista.it/immobile/17867113/
18,18,"Via Sessa Mignano, 63",1,it,{'typology': 'flat'},599006,False,,bj,False,False,False,False,False,41.3122222,13.917937,Sessa Aurunca,False,10,sale,,50000.0,556.0,18099479,flat,Caserta,4,True,90.0,good,"{'subtitle': 'Sessa Aurunca', 'title': 'Piso en Via Sessa Mignano, 63'}",https://img3.idealista.it/blur/WEB_LISTING/0/id.pro.it.image.master/ff/1f/33/228907423.jpg,https://www.idealista.it/immobile/18099479/
19,19,Strada PROVINCIALE PER COSTA,2,it,{'typology': 'flat'},598809,False,30631042-331 (2525812),bj,False,False,False,True,False,41.4669909,14.166878,Capriati a Volturno,False,19,sale,"{'hasParkingSpace': True, 'isParkingSpaceIncludedInPrice': True}",75000.0,375.0,17067343,flat,Caserta,3,False,200.0,renew,"{'subtitle': 'Capriati a Volturno', 'title': 'Piso en Strada PROVINCIALE PER COSTA'}",https://img3.idealista.it/blur/WEB_LISTING/0/id.pro.it.image.master/b7/dd/7f/208221514.jpg,https://www.idealista.it/immobile/17067343/
20,20,Via Giacomo Matteotti s/n,2,it,"{'typology': 'chalet', 'subTypology': 'terracedHouse'}",598785,False,R/1959,,False,False,,False,False,41.3399491,13.9605179,Galluccio,False,28,sale,,65000.0,591.0,17636478,chalet,Caserta,3,True,110.0,good,"{'subtitle': 'Galluccio', 'title': 'Chalet adosado en Via Giacomo Matteotti s/n'}",https://img3.idealista.it/blur/WEB_LISTING/0/id.pro.it.image.master/54/33/ee/220098374.jpg,https://www.idealista.it/immobile/17636478/
21,21,"Via Camillo Benso Conte di Cavour, 3",1,it,{'typology': 'flat'},598731,False,OR1226115,,False,False,,False,False,40.0923226,8.6553942,Bonarcado,False,0,sale,,59400.0,724.0,16885479,flat,Oristano,4,True,82.0,,"{'subtitle': 'Bonarcado', 'title': 'Piso en Via Camillo Benso Conte di Cavour, 3'}",,https://www.idealista.it/immobile/16885479/
22,22,Via Asia s/n,1,it,{'typology': 'flat'},598657,False,OR1206895,,False,False,,False,False,40.0877931,8.764037,Paulilatino,False,0,sale,,44508.0,148.0,16406852,flat,Oristano,18,True,300.0,,"{'subtitle': 'Paulilatino', 'title': 'Piso en Via Asia s/n'}",,https://www.idealista.it/immobile/16406852/
23,23,Via Ceci s/n,3,it,"{'typology': 'flat', 'subTypology': 'duplex'}",598641,False,,bj,False,False,False,True,False,41.3348677,13.9492051,Galluccio,False,59,sale,"{'hasParkingSpace': True, 'isParkingSpaceIncludedInPrice': True}",350000.0,1215.0,16689456,duplex,Caserta,10,True,288.0,good,"{'subtitle': 'Galluccio', 'title': 'Dúplex en Via Ceci s/n'}",https://img3.idealista.it/blur/WEB_LISTING/0/id.pro.it.image.master/b1/03/56/200445617.jpg,https://www.idealista.it/immobile/16689456/
24,24,Longano,1,it,"{'typology': 'chalet', 'subTypology': 'independantHouse'}",598632,False,V048,,False,False,,False,False,41.52127,14.24747,Longano,False,10,sale,"{'hasParkingSpace': True, 'isParkingSpaceIncludedInPrice': True}",47000.0,392.0,16594796,chalet,Isernia,5,False,120.0,good,"{'subtitle': 'Longano', 'title': 'Casa independiente'}",https://img3.idealista.it/blur/WEB_LISTING/0/id.pro.it.image.master/76/87/6d/198819054.jpg,https://www.idealista.it/immobile/16594796/
25,25,Longano,1,it,"{'typology': 'chalet', 'subTypology': 'independantHouse'}",598599,False,V041,,False,False,,False,False,41.52107,14.24657,Longano,False,11,sale,,69000.0,531.0,15983275,chalet,Isernia,6,False,130.0,good,"{'subtitle': 'Longano', 'title': 'Casa independiente'}",https://img3.idealista.it/blur/WEB_LISTING/0/id.pro.it.image.master/d8/b0/61/188013654.jpg,https://www.idealista.it/immobile/15983275/
26,26,Galluccio,1,it,{'typology': 'chalet'},598583,False,V2079,,False,False,,False,False,41.339723,13.9562569,Galluccio,False,10,sale,,39000.0,780.0,17525725,chalet,Caserta,2,False,50.0,good,"{'subtitle': 'Galluccio', 'title': 'Chalet'}",https://img3.idealista.it/blur/WEB_LISTING/0/id.pro.it.image.master/ed/c9/55/217474446.jpg,https://www.idealista.it/immobile/17525725/
27,27,Galluccio,1,it,{'typology': 'countryHouse'},598463,False,v2108,,False,False,,False,False,41.3408209,13.9557899,Galluccio,False,10,sale,,19000.0,173.0,17895561,countryHouse,Caserta,3,False,110.0,good,"{'subtitle': 'Galluccio', 'title': 'Casa rural'}",https://img3.idealista.it/blur/WEB_LISTING/0/id.pro.it.image.master/ed/c2/d7/225059855.jpg,https://www.idealista.it/immobile/17895561/
28,28,"Via Bettino Craxi, 64",2,it,"{'typology': 'chalet', 'subTypology': 'villa'}",598426,False,,,False,False,,False,False,41.22699,13.7576072,Minturno,False,5,sale,"{'hasParkingSpace': True, 'isParkingSpaceIncludedInPrice': True}",88000.0,419.0,14191712,chalet,Latina,5,True,210.0,renew,"{'subtitle': 'Minturno', 'title': 'Villa en Via Bettino Craxi, 64'}",https://img3.idealista.it/blur/WEB_LISTING/0/id.pro.it.image.master/d5/ce/72/146189422.jpg,https://www.idealista.it/immobile/14191712/
29,29,Contrada Fucilieri s/n,2,it,"{'typology': 'chalet', 'subTypology': 'independantHouse'}",598419,False,,,False,False,,False,False,42.017066,14.914412,Termoli,False,4,sale,"{'hasParkingSpace': True, 'isParkingSpaceIncludedInPrice': True}",160000.0,640.0,17402484,chalet,Campobasso,4,True,250.0,good,"{'subtitle': 'Termoli', 'title': 'Casa independiente en Contrada Fucilieri s/n'}",https://img3.idealista.it/blur/WEB_LISTING/0/id.pro.it.image.master/84/0a/51/214958876.jpg,https://www.idealista.it/immobile/17402484/
30,30,Via napoli,4,it,{'typology': 'flat'},598388,False,T902,bj,False,False,False,True,False,41.3406021,13.9539607,Galluccio,False,21,sale,,119000.0,476.0,12559547,flat,Caserta,9,False,250.0,good,"{'subtitle': 'Galluccio', 'title': 'Piso en Via napoli'}",https://img3.idealista.it/blur/WEB_LISTING/0/id.pro.it.image.master/5c/0d/40/111690516.jpg,https://www.idealista.it/immobile/12559547/
31,31,"SS16, 62",1,it,{'typology': 'flat'},598373,False,0484,1,False,False,False,False,False,42.0172618,14.9138995,Termoli,False,16,sale,,130000.0,4333.0,18051701,flat,Campobasso,2,True,30.0,good,"{'subtitle': 'Termoli', 'title': 'Piso en SS16, 62'}",https://img3.idealista.it/blur/WEB_LISTING/0/id.pro.it.image.master/61/06/14/228025802.jpg,https://www.idealista.it/immobile/18051701/
32,32,Via statale adriatica s/n,1,it,{'typology': 'flat'},598358,False,0447,bj,False,False,False,False,False,42.0174901,14.9139386,Termoli,False,8,sale,,150000.0,3000.0,14894599,flat,Campobasso,2,True,50.0,good,"{'subtitle': 'Termoli', 'title': 'Piso en Via statale adriatica s/n'}",https://img3.idealista.it/blur/WEB_LISTING/0/id.pro.it.image.master/6e/fb/9a/168391109.jpg,https://www.idealista.it/immobile/14894599/
33,33,Strada provinciale 163 s/n,1,it,"{'typology': 'chalet', 'subTypology': 'independantHouse'}",598303,False,,,False,False,,False,False,41.9022417,14.77088,Tavenna,False,16,sale,"{'hasParkingSpace': True, 'isParkingSpaceIncludedInPrice': True}",22000.0,152.0,16121503,chalet,Campobasso,4,True,145.0,good,"{'subtitle': 'Tavenna', 'title': 'Casa independiente en Strada provinciale 163 s/n'}",https://img3.idealista.it/blur/WEB_LISTING/0/id.pro.it.image.master/9a/0c/d7/190485358.jpg,https://www.idealista.it/immobile/16121503/
34,34,Via s'arizzone s/n,1,it,"{'typology': 'flat', 'subTypology': 'duplex'}",598217,False,le21,bj,False,False,False,False,False,40.107058,8.4913039,Cuglieri,False,10,sale,,120000.0,2000.0,15747309,duplex,Oristano,2,True,60.0,good,"{'subtitle': 'Cuglieri', 'title': ""Dúplex en Via s'arizzone s/n""}",https://img3.idealista.it/blur/WEB_LISTING/0/id.pro.it.image.master/27/7b/87/182932404.jpg,https://www.idealista.it/immobile/15747309/
35,35,Via Oristano s/n,2,it,"{'typology': 'chalet', 'subTypology': 'independantHouse'}",598213,False,(55300650),,False,False,,False,False,40.096932,8.6565702,Bonarcado,False,27,sale,"{'hasParkingSpace': True, 'isParkingSpaceIncludedInPrice': True}",105000.0,955.0,17997793,chalet,Oristano,5,True,110.0,good,"{'subtitle': 'Bonarcado', 'title': 'Casa independiente en Via Oristano s/n'}",https://img3.idealista.it/blur/WEB_LISTING/0/id.pro.it.image.master/08/f7/e9/226998219.jpg,https://www.idealista.it/immobile/17997793/
36,36,Strada Statale 292 Nord Occidentale Sarda,1,it,{'typology': 'flat'},598177,False,le20,bj,False,False,False,False,False,40.1075268,8.4898074,Cuglieri,False,19,sale,,120000.0,1412.0,18070243,flat,Oristano,3,False,85.0,good,"{'subtitle': 'Cuglieri', 'title': 'Piso en Strada Statale 292 Nord Occidentale Sarda'}",https://img3.idealista.it/blur/WEB_LISTING/0/id.pro.it.image.master/b7/a2/8e/228365909.jpg,https://www.idealista.it/immobile/18070243/
37,37,Cuglieri,2,it,{'typology': 'flat'},598176,False,Baia Romantica,bj,False,False,False,False,False,40.1076212,8.4884957,Cuglieri,False,31,sale,,150000.0,1042.0,17174368,flat,Oristano,7,False,144.0,good,"{'subtitle': 'Cuglieri', 'title': 'Piso'}",https://img3.idealista.it/blur/WEB_LISTING/0/id.pro.it.image.master/39/30/00/210320474.jpg,https://www.idealista.it/immobile/17174368/
38,38,"Via Sardegna, 19",1,it,{'typology': 'flat'},598119,False,OR1135612,,False,False,,False,False,40.097873,8.6547699,Bonarcado,False,0,sale,,17460.0,388.0,15040809,flat,Oristano,3,True,45.0,,"{'subtitle': 'Bonarcado', 'title': 'Piso en Via Sardegna, 19'}",,https://www.idealista.it/immobile/15040809/
39,39,Via Porto Galeo,1,it,{'typology': 'flat'},598083,False,Via Porto Galeo n. 2210  (71914196),1,False,False,False,True,False,41.2501032,13.7919273,Santi Cosma e Damiano,False,12,sale,,72631.0,519.0,16342553,flat,Latina,6,False,140.0,good,"{'subtitle': 'Santi Cosma e Damiano', 'title': 'Piso en Via Porto Galeo'}",https://img3.idealista.it/blur/WEB_LISTING/0/id.pro.it.image.master/79/be/0b/194371345.jpg,https://www.idealista.it/immobile/16342553/
40,40,Santi Cosma e Damiano,2,it,{'typology': 'flat'},598082,False,01-497,,False,False,,False,False,41.2657537,13.8194989,Santi Cosma e Damiano,False,4,sale,,150000.0,500.0,16592922,flat,Latina,3,False,300.0,,"{'subtitle': 'Santi Cosma e Damiano', 'title': 'Piso'}",https://img3.idealista.it/blur/WEB_LISTING/0/id.pro.it.image.master/06/6a/ca/198785932.jpg,https://www.idealista.it/immobile/16592922/
41,41,"Via Trieste, 20",3,it,{'typology': 'flat'},598069,False,VRA-1326,bj,False,False,False,False,False,41.420364,14.079041,Sesto Campano,False,9,sale,,65000.0,325.0,12599052,flat,Isernia,6,True,200.0,good,"{'subtitle': 'Sesto Campano', 'title': 'Piso en Via Trieste, 20'}",https://img3.idealista.it/blur/WEB_LISTING/0/id.pro.it.image.master/1d/81/9f/112353472.jpg,https://www.idealista.it/immobile/12599052/
42,42,Sesto Campano,1,it,"{'typology': 'chalet', 'subTypology': 'independantHouse'}",597980,False,1625/SESTOCAMPANO (71761056),,False,False,,False,False,41.42011,14.07697,Sesto Campano,False,13,sale,"{'hasParkingSpace': True, 'isParkingSpaceIncludedInPrice': True}",65000.0,500.0,16620766,chalet,Isernia,5,False,130.0,good,"{'subtitle': 'Sesto Campano', 'title': 'Casa independiente'}",https://img3.idealista.it/blur/WEB_LISTING/0/id.pro.it.image.master/c8/83/ec/199255097.jpg,https://www.idealista.it/immobile/16620766/
43,43,Via DELLE TERME,2,it,"{'typology': 'countryHouse', 'subTypology': 'casaDePueblo'}",597948,False,,,False,False,,False,False,41.2937412,13.8655827,Castelforte,False,13,sale,"{'hasParkingSpace': True, 'isParkingSpaceIncludedInPrice': True}",85000.0,425.0,16015254,countryHouse,Latina,6,False,200.0,renew,"{'subtitle': 'Castelforte', 'title': 'Casa de pueblo en Via DELLE TERME'}",https://img3.idealista.it/blur/WEB_LISTING/0/id.pro.it.image.master/fe/c7/f2/188399443.jpg,https://www.idealista.it/immobile/16015254/
44,44,"SS16, 246",2,it,{'typology': 'flat'},597935,False,AV 037,1,False,False,True,False,False,42.0183014,14.9080497,Termoli,False,14,sale,"{'hasParkingSpace': True, 'isParkingSpaceIncludedInPrice': True}",225000.0,2813.0,11702622,flat,Campobasso,3,True,80.0,good,"{'subtitle': 'Termoli', 'title': 'Piso en SS16, 246'}",https://img3.idealista.it/blur/WEB_LISTING/0/id.pro.it.image.master/e5/b5/f2/95546157.jpg,https://www.idealista.it/immobile/11702622/
45,45,Galluccio,1,it,"{'typology': 'chalet', 'subTypology': 'independantHouse'}",597860,False,1623/VAGLIE (71368248),,False,False,,False,False,41.3512458,13.9616514,Galluccio,False,16,sale,"{'hasParkingSpace': True, 'isParkingSpaceIncludedInPrice': True}",28000.0,467.0,16620758,chalet,Caserta,4,False,60.0,good,"{'subtitle': 'Galluccio', 'title': 'Casa independiente'}",https://img3.idealista.it/blur/WEB_LISTING/0/id.pro.it.image.master/34/5c/07/199255030.jpg,https://www.idealista.it/immobile/16620758/
46,46,Santi Cosma e Damiano,2,it,"{'typology': 'chalet', 'subTypology': 'independantHouse'}",597794,False,,,False,False,,True,False,41.2721096,13.8249507,Santi Cosma e Damiano,False,9,sale,"{'hasParkingSpace': True, 'isParkingSpaceIncludedInPrice': True}",100000.0,1250.0,16403576,chalet,Latina,4,False,80.0,good,"{'subtitle': 'Santi Cosma e Damiano', 'title': 'Casa independiente'}",https://img3.idealista.it/blur/WEB_LISTING/0/id.pro.it.image.master/ef/79/0c/195407250.jpg,https://www.idealista.it/immobile/16403576/
47,47,Via starza,1,it,"{'typology': 'chalet', 'subTypology': 'villa'}",597752,False,CL56471,,False,False,,False,False,41.344843,13.948828,Galluccio,False,25,sale,"{'hasParkingSpace': True, 'isParkingSpaceIncludedInPrice': True}",60000.0,923.0,17259954,chalet,Caserta,3,False,65.0,good,"{'subtitle': 'Galluccio', 'title': 'Villa en Via starza'}",https://img3.idealista.it/blur/WEB_LISTING/0/id.pro.it.image.master/6f/be/50/212064993.jpg,https://www.idealista.it/immobile/17259954/
48,48,Vico I° Cappella,1,it,{'typology': 'flat'},597744,False,Rif AV 063,1,False,False,False,False,False,41.905265,14.765423,Tavenna,False,20,sale,"{'hasParkingSpace': True, 'isParkingSpaceIncludedInPrice': True}",35000.0,269.0,5759671,flat,Campobasso,5,False,130.0,good,"{'subtitle': 'Tavenna', 'title': 'Piso en Vico I° Cappella'}",https://img3.idealista.it/blur/WEB_LISTING/0/id.pro.it.image.master/59/26/67/11829940.jpeg,https://www.idealista.it/immobile/5759671/
49,49,Via Pantano Arenile,3,it,"{'typology': 'chalet', 'subTypology': 'villa'}",597726,False,,,False,False,,False,False,41.2319895,13.7525192,Minturno,False,32,sale,"{'hasParkingSpace': True, 'isParkingSpaceIncludedInPrice': True}",360000.0,900.0,17803277,chalet,Latina,10,False,400.0,good,"{'subtitle': 'Minturno', 'title': 'Villa en Via Pantano Arenile'}",https://img3.idealista.it/blur/WEB_LISTING/0/id.pro.it.image.master/1b/07/d3/223255086.jpg,https://www.idealista.it/immobile/17803277/
50,0,Via delle terme s/n,2,it,"{'typology': 'chalet', 'subTypology': 'independantHouse'}",597671,False,W-02GS3E,,False,False,,False,False,41.2938154,13.8602923,Castelforte,False,6,sale,"{'hasParkingSpace': True, 'isParkingSpaceIncludedInPrice': True}",120000.0,300.0,17983526,chalet,Latina,8,True,400.0,renew,"{'subtitle': 'Castelforte', 'title': 'Casa independiente en Via delle terme s/n'}",https://img3.idealista.it/blur/WEB_LISTING/0/id.pro.it.image.master/3f/24/e6/226875972.jpg,https://www.idealista.it/immobile/17983526/
51,1,Via dei cardellini s/n,2,it,"{'typology': 'chalet', 'subTypology': 'independantHouse'}",597651,False,(54677435),,False,False,,False,False,40.1122543,8.4901515,Cuglieri,False,14,sale,"{'hasParkingSpace': True, 'isParkingSpaceIncludedInPrice': True}",185000.0,974.0,13947978,chalet,Oristano,7,True,190.0,good,"{'subtitle': 'Cuglieri', 'title': 'Casa independiente en Via dei cardellini s/n'}",https://img3.idealista.it/blur/WEB_LISTING/0/id.pro.it.image.master/6d/13/0c/154958222.jpg,https://www.idealista.it/immobile/13947978/
52,2,"Via Virilassi, 13",2,it,"{'typology': 'chalet', 'subTypology': 'independantHouse'}",597601,False,A182VRG,,False,False,,False,False,41.2402105,13.76473,Minturno,False,15,sale,"{'hasParkingSpace': True, 'isParkingSpaceIncludedInPrice': True}",140000.0,1647.0,18105302,chalet,Latina,4,True,85.0,renew,"{'subtitle': 'Minturno', 'title': 'Casa independiente en Via Virilassi, 13'}",https://img3.idealista.it/blur/WEB_LISTING/0/id.pro.it.image.master/e0/1e/cd/229022994.jpg,https://www.idealista.it/immobile/18105302/
53,3,Tavenna,2,it,"{'typology': 'chalet', 'subTypology': 'independantHouse'}",597529,False,CV11,,False,False,,False,False,41.9075604,14.7647625,Tavenna,False,20,sale,"{'hasParkingSpace': True, 'isParkingSpaceIncludedInPrice': True}",90000.0,360.0,17036467,chalet,Campobasso,7,False,250.0,good,"{'subtitle': 'Tavenna', 'title': 'Casa independiente'}",https://img3.idealista.it/blur/WEB_LISTING/0/id.pro.it.image.master/ba/ae/81/207641479.jpg,https://www.idealista.it/immobile/17036467/
54,4,"Via Monte D'Argento, 74",1,it,"{'typology': 'chalet', 'subTypology': 'independantHouse'}",597510,False,,,False,False,,False,False,41.2338169,13.7514678,Minturno,False,9,sale,,65000.0,1250.0,14839669,chalet,Latina,3,True,52.0,good,"{'subtitle': 'Minturno', 'title': ""Casa independiente en Via Monte D'Argento, 74""}",https://img3.idealista.it/blur/WEB_LISTING/0/id.pro.it.image.master/0f/4a/d9/166488289.jpg,https://www.idealista.it/immobile/14839669/
55,5,Minturno,2,it,"{'typology': 'chalet', 'subTypology': 'independantHouse'}",597405,False,A101VRG,,False,False,,False,False,41.2445578,13.7685595,Minturno,False,20,sale,,140000.0,1333.0,17127373,chalet,Latina,4,False,105.0,,"{'subtitle': 'Minturno', 'title': 'Casa independiente'}",https://img3.idealista.it/blur/WEB_LISTING/0/id.pro.it.image.master/21/db/b6/209422067.jpg,https://www.idealista.it/immobile/17127373/
56,6,"Via Pontenuovo, 68",0,it,"{'typology': 'countryHouse', 'subTypology': 'masseria'}",597398,False,VRA-1579,,False,False,,False,False,41.5899827,14.3282405,Carpinone,False,6,sale,,38000.0,362.0,17915691,countryHouse,Isernia,2,True,105.0,renew,"{'subtitle': 'Carpinone', 'title': 'Masseria en Via Pontenuovo, 68'}",https://img3.idealista.it/blur/WEB_LISTING/0/id.pro.it.image.master/ef/dc/4e/225473904.jpg,https://www.idealista.it/immobile/17915691/
57,7,Via delle Terme,2,it,{'typology': 'flat'},597250,False,cp073,1,False,False,False,False,False,41.2903225,13.8459607,Castelforte,False,12,sale,"{'hasParkingSpace': True, 'isParkingSpaceIncludedInPrice': False, 'parkingSpacePrice': 0.0}",123000.0,842.0,12697819,flat,Latina,6,False,146.0,good,"{'subtitle': 'Castelforte', 'title': 'Piso en Via delle Terme'}",https://img3.idealista.it/blur/WEB_LISTING/0/id.pro.it.image.master/2f/2d/38/114068402.jpg,https://www.idealista.it/immobile/12697819/
58,8,Galluccio,6,it,"{'typology': 'countryHouse', 'subTypology': 'casalicascine'}",597229,False,1822,,False,False,,False,False,41.3549202,13.9556503,Galluccio,False,11,sale,"{'hasParkingSpace': True, 'isParkingSpaceIncludedInPrice': True}",950000.0,1652.0,17882045,countryHouse,Caserta,11,False,575.0,good,"{'subtitle': 'Galluccio', 'title': 'Casa de campo/granja'}",https://img3.idealista.it/blur/WEB_LISTING/0/id.pro.it.image.master/78/d0/e4/224816495.jpg,https://www.idealista.it/immobile/17882045/
59,9,sessa mignano,1,it,"{'typology': 'chalet', 'subTypology': 'villa'}",597197,False,dd6a88cc-fb65-4c9f-bVRG,en,False,False,,False,False,41.3330522,13.9182048,Galluccio,False,8,sale,,37000.0,740.0,12942326,chalet,Caserta,3,False,50.0,,"{'subtitle': 'Galluccio', 'title': 'Villa en sessa mignano'}",https://img3.idealista.it/blur/WEB_LISTING/0/id.pro.it.image.master/08/6e/1e/145284735.jpg,https://www.idealista.it/immobile/12942326/
60,10,Via Roma,1,it,"{'typology': 'chalet', 'subTypology': 'independantHouse'}",597164,False,,,False,False,,False,False,41.9092446,14.7608351,Tavenna,False,3,sale,"{'hasParkingSpace': True, 'isParkingSpaceIncludedInPrice': True}",30000.0,160.0,13627398,chalet,Campobasso,5,False,187.0,renew,"{'subtitle': 'Tavenna', 'title': 'Casa independiente en Via Roma'}",https://img3.idealista.it/blur/WEB_LISTING/0/id.pro.it.image.master/67/e3/ce/135919661.jpg,https://www.idealista.it/immobile/13627398/
61,11,Via delle Cave s/n,1,it,"{'typology': 'chalet', 'subTypology': 'independantHouse'}",597149,False,(55100190),,False,False,,False,False,40.1150138,8.5158363,Cuglieri,False,15,sale,"{'hasParkingSpace': True, 'isParkingSpaceIncludedInPrice': True}",150000.0,2000.0,16721574,chalet,Oristano,3,True,75.0,good,"{'subtitle': 'Cuglieri', 'title': 'Casa independiente en Via delle Cave s/n'}",https://img3.idealista.it/blur/WEB_LISTING/0/id.pro.it.image.master/04/18/7d/201423454.jpg,https://www.idealista.it/immobile/16721574/
62,12,Minturno,3,it,"{'typology': 'chalet', 'subTypology': 'independantHouse'}",597105,False,1650,,False,False,,False,False,41.2368305,13.7487353,Minturno,False,18,sale,,358000.0,2106.0,12759383,chalet,Latina,5,False,170.0,good,"{'subtitle': 'Minturno', 'title': 'Casa independiente'}",https://img3.idealista.it/blur/WEB_LISTING/0/id.pro.it.image.master/a6/f9/09/116417757.jpg,https://www.idealista.it/immobile/12759383/
63,13,Carpinone,2,it,"{'typology': 'chalet', 'subTypology': 'villa'}",597104,False,MQ090,bj,False,False,,False,False,41.590793,14.324165,Carpinone,False,10,sale,,100000.0,403.0,13095125,chalet,Isernia,5,False,248.0,renew,"{'subtitle': 'Carpinone', 'title': 'Villa'}",https://img3.idealista.it/blur/WEB_LISTING/0/id.pro.it.image.master/dd/b9/ac/125686237.jpg,https://www.idealista.it/immobile/13095125/
64,14,"Via Vigne Inferiori, 80",1,it,{'typology': 'flat'},597088,False,,1,False,False,False,False,False,41.2728301,13.8122302,Santi Cosma e Damiano,False,10,sale,,85000.0,885.0,12315483,flat,Latina,3,True,96.0,good,"{'subtitle': 'Santi Cosma e Damiano', 'title': 'Piso en Via Vigne Inferiori, 80'}",https://img3.idealista.it/blur/WEB_LISTING/0/id.pro.it.image.master/ab/6d/3a/106379290.jpg,https://www.idealista.it/immobile/12315483/
65,15,Delle terme s/n,1,it,{'typology': 'flat'},597052,False,B/114,en,False,False,False,False,False,41.2925427,13.8459112,Castelforte,False,3,sale,,60000.0,750.0,17771977,flat,Latina,3,True,80.0,renew,"{'subtitle': 'Castelforte', 'title': 'Piso en Delle terme s/n'}",https://img3.idealista.it/blur/WEB_LISTING/0/id.pro.it.image.master/0c/af/1d/223046633.jpg,https://www.idealista.it/immobile/17771977/
66,16,"Via Parchi Ausente, Minturno, LT s/n",1,it,"{'typology': 'chalet', 'subTypology': 'independantHouse'}",596961,False,,,False,False,,True,False,41.255432,13.7790185,Minturno,False,7,sale,,38000.0,760.0,16538477,chalet,Latina,3,True,50.0,renew,"{'subtitle': 'Minturno', 'title': 'Casa independiente en Via Parchi Ausente, Minturno, LT s/n'}",https://img3.idealista.it/blur/WEB_LISTING/0/id.pro.it.image.master/4e/4b/13/197775079.jpg,https://www.idealista.it/immobile/16538477/
67,17,"Via Campoluongo, 295 A",2,it,"{'typology': 'chalet', 'subTypology': 'terracedHouse'}",596950,False,,,False,False,,True,False,41.2731393,13.8100339,Santi Cosma e Damiano,False,18,sale,"{'hasParkingSpace': True, 'isParkingSpaceIncludedInPrice': True}",250000.0,1136.0,16979665,chalet,Latina,5,True,220.0,good,"{'subtitle': 'Santi Cosma e Damiano', 'title': 'Chalet adosado en Via Campoluongo, 295 A'}",https://img3.idealista.it/blur/WEB_LISTING/0/id.pro.it.image.master/fd/60/f5/206269313.jpg,https://www.idealista.it/immobile/16979665/
68,18,santi cosma e damiani s/n,1,it,{'typology': 'flat'},596950,False,,1,False,False,False,True,False,41.2731393,13.8100339,Santi Cosma e Damiano,False,4,sale,,12000.0,240.0,18110494,flat,Latina,3,True,50.0,renew,"{'subtitle': 'Santi Cosma e Damiano', 'title': 'Piso en santi cosma e damiani s/n'}",https://img3.idealista.it/blur/WEB_LISTING/0/id.pro.it.image.master/54/68/ca/229083053.jpg,https://www.idealista.it/immobile/18110494/
69,19,santi cosma e damiano s/n,3,it,"{'typology': 'chalet', 'subTypology': 'independantHouse'}",596950,False,M3,,False,False,,False,False,41.2731393,13.8100339,Santi Cosma e Damiano,False,24,sale,"{'hasParkingSpace': True, 'isParkingSpaceIncludedInPrice': True}",285000.0,814.0,14783646,chalet,Latina,9,True,350.0,good,"{'subtitle': 'Santi Cosma e Damiano', 'title': 'Casa independiente en santi cosma e damiano s/n'}",https://img3.idealista.it/blur/WEB_LISTING/0/id.pro.it.image.master/1b/7f/f6/160864005.jpg,https://www.idealista.it/immobile/14783646/
70,20,Via PETENGATE s/n,2,it,"{'typology': 'countryHouse', 'subTypology': 'casaDePueblo'}",596950,False,22731035-18,,False,False,,False,False,41.2731393,13.8100339,Santi Cosma e Damiano,False,12,sale,,59000.0,393.0,17765167,countryHouse,Latina,5,True,150.0,renew,"{'subtitle': 'Santi Cosma e Damiano', 'title': 'Casa de pueblo en Via PETENGATE s/n'}",https://img3.idealista.it/blur/WEB_LISTING/0/id.pro.it.image.master/ee/4e/8a/222555000.jpg,https://www.idealista.it/immobile/17765167/
71,21,Roma s/n,1,it,{'typology': 'flat'},596940,False,VRA-1510,2,False,False,False,True,False,41.59113,14.3217283,Carpinone,False,5,sale,,50000.0,305.0,16109041,flat,Isernia,4,True,164.0,renew,"{'subtitle': 'Carpinone', 'title': 'Piso en Roma s/n'}",https://img3.idealista.it/blur/WEB_LISTING/0/id.pro.it.image.master/fa/e2/9c/190123275.jpg,https://www.idealista.it/immobile/16109041/
72,22,Galluccio,1,it,{'typology': 'chalet'},596932,False,v1980,bj,False,False,,False,False,41.3369695,13.9197049,Galluccio,False,13,sale,,35000.0,700.0,16764922,chalet,Caserta,2,False,50.0,good,"{'subtitle': 'Galluccio', 'title': 'Chalet'}",https://img3.idealista.it/blur/WEB_LISTING/0/id.pro.it.image.master/9b/bb/cc/202213666.jpg,https://www.idealista.it/immobile/16764922/
73,23,Contrada Cappella,0,it,"{'typology': 'countryHouse', 'subTypology': 'casalicascine'}",596883,False,VRA-1452,,False,False,,True,False,41.5938026,14.3246586,Carpinone,False,11,sale,,13000.0,271.0,14851358,countryHouse,Isernia,2,False,48.0,renew,"{'subtitle': 'Carpinone', 'title': 'Casa de campo/granja en Contrada Cappella'}",https://img3.idealista.it/blur/WEB_LISTING/0/id.pro.it.image.master/c3/af/d5/166940778.jpg,https://www.idealista.it/immobile/14851358/
74,24,Villaggio le Querce,1,it,"{'typology': 'chalet', 'subTypology': 'terracedHouse'}",596856,False,,bj,False,False,,False,False,41.3354508,13.9156617,Galluccio,False,13,sale,"{'hasParkingSpace': True, 'isParkingSpaceIncludedInPrice': True}",39000.0,709.0,10447861,chalet,Caserta,2,False,55.0,good,"{'subtitle': 'Galluccio', 'title': 'Chalet adosado en Villaggio le Querce'}",https://img3.idealista.it/blur/WEB_LISTING/0/id.pro.it.image.master/8d/74/57/73603721.jpg,https://www.idealista.it/immobile/10447861/
75,25,Via Stradone,2,it,"{'typology': 'chalet', 'subTypology': 'villa'}",596849,False,,,False,False,,False,False,41.2648403,13.793425,Santi Cosma e Damiano,False,39,sale,"{'hasParkingSpace': True, 'isParkingSpaceIncludedInPrice': True}",165000.0,550.0,17971562,chalet,Latina,6,False,300.0,good,"{'subtitle': 'Santi Cosma e Damiano', 'title': 'Villa en Via Stradone'}",https://img3.idealista.it/blur/WEB_LISTING/0/id.pro.it.image.master/0e/42/ac/226519883.jpg,https://www.idealista.it/immobile/17971562/
76,26,Via perrusi s/n,5,it,"{'typology': 'chalet', 'subTypology': 'villa'}",596842,False,,,False,False,,False,False,41.2719461,13.8058029,Santi Cosma e Damiano,False,8,sale,"{'hasParkingSpace': True, 'isParkingSpaceIncludedInPrice': True}",200000.0,571.0,17947254,chalet,Latina,9,True,350.0,renew,"{'subtitle': 'Santi Cosma e Damiano', 'title': 'Villa en Via perrusi s/n'}",https://img3.idealista.it/blur/WEB_LISTING/0/id.pro.it.image.master/8c/15/b1/226029835.jpg,https://www.idealista.it/immobile/17947254/
77,27,"Viale Alessandro Manzoni, 86038",4,it,"{'typology': 'countryHouse', 'subTypology': 'masseria'}",596764,False,0457,,False,False,,False,False,42.0032723,14.8708421,Petacciato,False,3,sale,,72000.0,480.0,16328871,countryHouse,Campobasso,3,True,150.0,renew,"{'subtitle': 'Petacciato', 'title': 'Masseria en Viale Alessandro Manzoni, 86038'}",https://img3.idealista.it/blur/WEB_LISTING/0/id.pro.it.image.master/d3/8b/93/194200133.jpg,https://www.idealista.it/immobile/16328871/
78,28,Carpinone,0,it,"{'typology': 'chalet', 'subTypology': 'independantHouse'}",596756,False,AR332ITH,,False,False,,False,False,41.595994,14.325611,Carpinone,False,33,sale,,1000000.0,873.0,8528604,chalet,Isernia,40,False,1145.0,renew,"{'subtitle': 'Carpinone', 'title': 'Casa independiente'}",https://img3.idealista.it/blur/WEB_LISTING/0/id.pro.it.image.master/f7/d8/03/184528053.jpg,https://www.idealista.it/immobile/8528604/
79,29,"Via delle Terme, 60",2,it,{'typology': 'flat'},596576,False,delle Terme 60  (70705902),bj,False,False,False,True,False,41.2891394,13.8306379,Castelforte,False,7,sale,,82001.0,446.0,15885772,flat,Latina,6,True,184.0,good,"{'subtitle': 'Castelforte', 'title': 'Piso en Via delle Terme, 60'}",https://img3.idealista.it/blur/WEB_LISTING/0/id.pro.it.image.master/ea/91/8d/185814699.jpg,https://www.idealista.it/immobile/15885772/
80,30,francesco baracca,2,it,{'typology': 'flat'},596522,False,Cp085,en,False,False,False,False,False,41.2762279,13.806987,Santi Cosma e Damiano,False,12,sale,"{'hasParkingSpace': True, 'isParkingSpaceIncludedInPrice': True}",100000.0,637.0,12697592,flat,Latina,7,False,157.0,good,"{'subtitle': 'Santi Cosma e Damiano', 'title': 'Piso en francesco baracca'}",https://img3.idealista.it/blur/WEB_LISTING/0/id.pro.it.image.master/a7/6e/77/114049187.jpg,https://www.idealista.it/immobile/12697592/
81,31,Santi Cosma e Damiano,1,it,"{'typology': 'chalet', 'subTypology': 'independantHouse'}",596513,False,VV0328 (45635246),,False,False,,False,False,41.27169,13.798827,Santi Cosma e Damiano,False,10,sale,,80000.0,667.0,9626620,chalet,Latina,5,False,120.0,renew,"{'subtitle': 'Santi Cosma e Damiano', 'title': 'Casa independiente'}",https://img3.idealista.it/blur/WEB_LISTING/0/id.pro.it.image.master/91/55/c7/159397348.jpg,https://www.idealista.it/immobile/9626620/
82,32,Via Ponte Garigliano s/n,1,it,{'typology': 'flat'},596486,False,A261,bj,False,False,False,False,False,41.2497679,13.7594516,Minturno,False,17,sale,,80000.0,1143.0,12381029,flat,Latina,3,True,70.0,renew,"{'subtitle': 'Minturno', 'title': 'Piso en Via Ponte Garigliano s/n'}",https://img3.idealista.it/blur/WEB_LISTING/0/id.pro.it.image.master/12/f9/8e/107510684.jpg,https://www.idealista.it/immobile/12381029/
83,33,Santi Cosma e Damiano,1,it,{'typology': 'chalet'},596450,False,01-V000244,bj,False,False,,False,False,41.2769279,13.806787,Santi Cosma e Damiano,False,47,sale,"{'hasParkingSpace': True, 'isParkingSpaceIncludedInPrice': True}",120000.0,545.0,17545275,chalet,Latina,4,False,220.0,good,"{'subtitle': 'Santi Cosma e Damiano', 'title': 'Chalet'}",https://img3.idealista.it/blur/WEB_LISTING/0/id.pro.it.image.master/75/c6/19/217885875.jpg,https://www.idealista.it/immobile/17545275/
84,34,Vigne Superiori s/n,1,it,{'typology': 'flat'},596419,False,A259,en,False,False,False,False,False,41.2815595,13.8142958,Santi Cosma e Damiano,False,10,sale,,118000.0,1475.0,11616727,flat,Latina,3,True,80.0,good,"{'subtitle': 'Santi Cosma e Damiano', 'title': 'Piso en Vigne Superiori s/n'}",https://img3.idealista.it/blur/WEB_LISTING/0/id.pro.it.image.master/0e/36/61/93732093.jpg,https://www.idealista.it/immobile/11616727/
85,35,Castelforte,3,it,"{'typology': 'chalet', 'subTypology': 'independantHouse'}",596376,False,VV0388 (48000427),,False,False,,True,False,41.29295,13.83332,Castelforte,False,19,sale,,105000.0,1105.0,9626640,chalet,Latina,6,False,95.0,good,"{'subtitle': 'Castelforte', 'title': 'Casa independiente'}",https://img3.idealista.it/blur/WEB_LISTING/0/id.pro.it.image.master/4b/e8/a5/159398589.jpg,https://www.idealista.it/immobile/9626640/
86,36,Minturno,1,it,{'typology': 'flat'},596375,False,A130VRG,en,False,False,False,False,False,41.2409628,13.741501,Minturno,False,13,sale,"{'hasParkingSpace': True, 'isParkingSpaceIncludedInPrice': True}",100000.0,847.0,17127402,flat,Latina,3,False,118.0,,"{'subtitle': 'Minturno', 'title': 'Piso'}",https://img3.idealista.it/blur/WEB_LISTING/0/id.pro.it.image.master/04/7f/e0/209422301.jpg,https://www.idealista.it/immobile/17127402/
87,37,Minturno,1,it,{'typology': 'flat'},596366,False,1973,1,False,False,False,False,False,41.240925,13.7412407,Minturno,False,17,sale,,74000.0,1042.0,16010241,flat,Latina,3,False,71.0,good,"{'subtitle': 'Minturno', 'title': 'Piso'}",https://img3.idealista.it/blur/WEB_LISTING/0/id.pro.it.image.master/01/81/a1/188338910.jpg,https://www.idealista.it/immobile/16010241/
88,38,Montenero di Bisaccia,2,it,"{'typology': 'countryHouse', 'subTypology': 'masseria'}",596350,False,RIF.606 (54376341),,False,False,,False,False,41.941612,14.7880931,Montenero di Bisaccia,False,11,sale,"{'hasParkingSpace': True, 'isParkingSpaceIncludedInPrice': True}",145000.0,690.0,13698972,countryHouse,Campobasso,10,False,210.0,renew,"{'subtitle': 'Montenero di Bisaccia', 'title': 'Masseria'}",https://img3.idealista.it/blur/WEB_LISTING/0/id.pro.it.image.master/da/e4/a2/154684215.jpg,https://www.idealista.it/immobile/13698972/
89,39,Minturno,2,it,"{'typology': 'chalet', 'subTypology': 'terracedHouse'}",596345,False,2478,,False,False,,False,False,41.24295,13.7444479,Minturno,False,36,sale,,170000.0,1417.0,17511491,chalet,Latina,5,False,120.0,good,"{'subtitle': 'Minturno', 'title': 'Chalet adosado'}",https://img3.idealista.it/blur/WEB_LISTING/0/id.pro.it.image.master/5b/9b/9c/217217028.jpg,https://www.idealista.it/immobile/17511491/
90,40,Minturno,1,it,{'typology': 'flat'},596291,False,1974,1,False,False,False,False,False,41.240425,13.7388407,Minturno,False,17,sale,,62000.0,886.0,16010248,flat,Latina,3,False,70.0,good,"{'subtitle': 'Minturno', 'title': 'Piso'}",https://img3.idealista.it/blur/WEB_LISTING/0/id.pro.it.image.master/38/9c/fb/188338908.jpg,https://www.idealista.it/immobile/16010248/
91,41,valle di suio s/n,4,it,"{'typology': 'countryHouse', 'subTypology': 'casaDePueblo'}",596278,False,Cp062,,False,False,,False,False,41.311798,13.8640184,Castelforte,False,21,sale,,166000.0,503.0,15269221,countryHouse,Latina,10,True,330.0,renew,"{'subtitle': 'Castelforte', 'title': 'Casa de pueblo en valle di suio s/n'}",https://img3.idealista.it/blur/WEB_LISTING/0/id.pro.it.image.master/d3/fa/c6/174691959.jpg,https://www.idealista.it/immobile/15269221/
92,42,FRANCESCO BARACCA,1,it,"{'typology': 'chalet', 'subTypology': 'independantHouse'}",596262,False,,,False,False,,False,False,41.2772279,13.803587,Santi Cosma e Damiano,False,9,sale,,120000.0,667.0,16774527,chalet,Latina,4,False,180.0,good,"{'subtitle': 'Santi Cosma e Damiano', 'title': 'Casa independiente en FRANCESCO BARACCA'}",https://img3.idealista.it/blur/WEB_LISTING/0/id.pro.it.image.master/b1/62/ff/202369977.jpg,https://www.idealista.it/immobile/16774527/
93,43,Piazza Monte d'Argento s/n,1,it,{'typology': 'flat'},596260,False,a245,en,False,False,False,False,False,41.2397715,13.7370415,Minturno,False,5,sale,,100000.0,1667.0,11519812,flat,Latina,3,True,60.0,good,"{'subtitle': 'Minturno', 'title': ""Piso en Piazza Monte d'Argento s/n""}",https://img3.idealista.it/blur/WEB_LISTING/0/id.pro.it.image.master/ec/e0/1f/92482179.jpg,https://www.idealista.it/immobile/11519812/
94,44,Castelforte,3,it,"{'typology': 'chalet', 'subTypology': 'independantHouse'}",596203,False,Z459W,,False,False,,True,False,41.2885419,13.8222325,Castelforte,False,14,sale,,230000.0,1917.0,17748587,chalet,Latina,6,False,120.0,good,"{'subtitle': 'Castelforte', 'title': 'Casa independiente'}",https://img3.idealista.it/blur/WEB_LISTING/0/id.pro.it.image.master/69/bb/04/222211595.jpg,https://www.idealista.it/immobile/17748587/
95,45,valle di suio,4,it,"{'typology': 'countryHouse', 'subTypology': 'masseria'}",596187,False,cp062,,False,False,,False,False,41.313298,13.8648184,Castelforte,False,12,sale,"{'hasParkingSpace': True, 'isParkingSpaceIncludedInPrice': True}",166000.0,474.0,12697855,countryHouse,Latina,12,False,350.0,renew,"{'subtitle': 'Castelforte', 'title': 'Masseria en valle di suio'}",https://img3.idealista.it/blur/WEB_LISTING/0/id.pro.it.image.master/bb/bb/28/114069099.jpg,https://www.idealista.it/immobile/12697855/
96,46,"Via ferrara, 29",2,it,"{'typology': 'flat', 'subTypology': 'duplex'}",596180,False,A158,bj,False,False,False,False,False,41.2765126,13.8007112,Santi Cosma e Damiano,False,16,sale,,168000.0,700.0,8154791,duplex,Latina,5,True,240.0,good,"{'subtitle': 'Santi Cosma e Damiano', 'title': 'Dúplex en Via ferrara, 29'}",https://img3.idealista.it/blur/WEB_LISTING/0/id.pro.it.image.master/79/bb/74/34182370.jpg,https://www.idealista.it/immobile/8154791/
97,47,Carpinone,2,it,"{'typology': 'chalet', 'subTypology': 'independantHouse'}",596171,False,pp183,,False,False,,False,False,41.5891501,14.3049979,Carpinone,False,15,sale,,200000.0,2222.0,9051751,chalet,Isernia,3,False,90.0,good,"{'subtitle': 'Carpinone', 'title': 'Casa independiente'}",https://img3.idealista.it/blur/WEB_LISTING/0/id.pro.it.image.master/ac/71/e2/46151164.jpg,https://www.idealista.it/immobile/9051751/
98,48,Marina di Minturno s/n,1,it,{'typology': 'flat'},596161,False,A256,1,False,False,False,False,False,41.2415876,13.7383103,Minturno,False,14,sale,"{'hasParkingSpace': True, 'isParkingSpaceIncludedInPrice': True}",90000.0,1500.0,11594477,flat,Latina,3,True,60.0,good,"{'subtitle': 'Minturno', 'title': 'Piso en Marina di Minturno s/n'}",https://img3.idealista.it/blur/WEB_LISTING/0/id.pro.it.image.master/a1/48/83/93451544.jpg,https://www.idealista.it/immobile/11594477/
99,49,PIETRO FEDELE,1,it,{'typology': 'flat'},596095,False,,en,False,False,False,False,False,41.2423467,13.7383535,Minturno,False,15,sale,,74000.0,925.0,17712345,flat,Latina,3,False,80.0,good,"{'subtitle': 'Minturno', 'title': 'Piso en PIETRO FEDELE'}",https://img3.idealista.it/blur/WEB_LISTING/0/id.pro.it.image.master/67/3e/16/221566789.jpg,https://www.idealista.it/immobile/17712345/
100,0,Via Princeton,4,it,"{'typology': 'chalet', 'subTypology': 'villa'}",596092,False,33981033-13 (67975859),bj,False,False,,False,False,41.5721364,14.2782159,Pettoranello del Molise,False,15,sale,,100000.0,357.0,14533733,chalet,Isernia,8,False,280.0,good,"{'subtitle': 'Pettoranello del Molise', 'title': 'Villa en Via Princeton'}",https://img3.idealista.it/blur/WEB_LISTING/0/id.pro.it.image.master/00/53/50/162194887.jpg,https://www.idealista.it/immobile/14533733/
101,1,Viale Pietro Fedele,1,it,{'typology': 'flat'},596079,False,,2,False,False,False,False,False,41.2422467,13.7378535,Minturno,False,23,sale,"{'hasParkingSpace': True, 'isParkingSpaceIncludedInPrice': True}",140000.0,933.0,17838307,flat,Latina,4,False,150.0,good,"{'subtitle': 'Minturno', 'title': 'Piso en Viale Pietro Fedele'}",https://img3.idealista.it/blur/WEB_LISTING/0/id.pro.it.image.master/bf/90/45/223975270.jpg,https://www.idealista.it/immobile/17838307/
102,2,Minturno,2,it,"{'typology': 'chalet', 'subTypology': 'terracedHouse'}",596073,False,A35VRG,en,False,False,,False,False,41.2633788,13.7754071,Minturno,False,20,sale,"{'hasParkingSpace': True, 'isParkingSpaceIncludedInPrice': True}",170000.0,1133.0,15462334,chalet,Latina,5,False,150.0,,"{'subtitle': 'Minturno', 'title': 'Chalet adosado'}",https://img3.idealista.it/blur/WEB_LISTING/0/id.pro.it.image.master/37/3c/5a/177945942.jpg,https://www.idealista.it/immobile/15462334/
103,3,Contrada Colle La Liscia s/n,2,it,"{'typology': 'countryHouse', 'subTypology': 'casalicascine'}",596003,False,123,,False,False,,True,False,41.734464,14.5100222,Salcito,False,19,sale,,125000.0,443.0,16170548,countryHouse,Campobasso,11,True,282.0,good,"{'subtitle': 'Salcito', 'title': 'Casa de campo/granja en Contrada Colle La Liscia s/n'}",https://img3.idealista.it/blur/WEB_LISTING/0/id.pro.it.image.master/66/4e/92/191436768.jpg,https://www.idealista.it/immobile/16170548/
104,4,"Viale Pietro Fedele, 165",2,it,{'typology': 'flat'},595990,False,a274,2,False,False,False,False,False,41.2419948,13.7356119,Minturno,False,26,sale,"{'hasParkingSpace': True, 'isParkingSpaceIncludedInPrice': True}",225000.0,2813.0,12157093,flat,Latina,4,True,80.0,good,"{'subtitle': 'Minturno', 'title': 'Piso en Viale Pietro Fedele, 165'}",https://img3.idealista.it/blur/WEB_LISTING/0/id.pro.it.image.master/58/47/a6/103585861.jpg,https://www.idealista.it/immobile/12157093/
105,5,"Via Adriatico, 13",2,it,"{'typology': 'chalet', 'subTypology': 'terracedHouse'}",595973,False,0443,,False,False,,False,False,42.0077453,14.863385,Petacciato,False,4,sale,"{'hasParkingSpace': True, 'isParkingSpaceIncludedInPrice': True}",110000.0,1222.0,14888859,chalet,Campobasso,5,True,90.0,good,"{'subtitle': 'Petacciato', 'title': 'Chalet adosado en Via Adriatico, 13'}",https://img3.idealista.it/blur/WEB_LISTING/0/id.pro.it.image.master/d1/bd/03/168276507.jpg,https://www.idealista.it/immobile/14888859/
106,6,"Via Adriatico, 30",1,it,"{'typology': 'chalet', 'subTypology': 'terracedHouse'}",595965,False,0470,,False,False,,False,False,42.0076848,14.8631786,Petacciato,False,4,sale,"{'hasParkingSpace': True, 'isParkingSpaceIncludedInPrice': True}",100000.0,1333.0,16968669,chalet,Campobasso,4,True,75.0,good,"{'subtitle': 'Petacciato', 'title': 'Chalet adosado en Via Adriatico, 30'}",https://img3.idealista.it/blur/WEB_LISTING/0/id.pro.it.image.master/2b/d2/11/206052315.jpg,https://www.idealista.it/immobile/16968669/
107,7,Piazza guglielmo marconi s/n,1,it,"{'typology': 'chalet', 'subTypology': 'independantHouse'}",595961,False,VRA-1179,,False,False,,False,False,41.5733674,14.2777009,Pettoranello del Molise,False,6,sale,,40000.0,533.0,10233205,chalet,Isernia,4,True,75.0,good,"{'subtitle': 'Pettoranello del Molise', 'title': 'Casa independiente en Piazza guglielmo marconi s/n'}",https://img3.idealista.it/blur/WEB_LISTING/0/id.pro.it.image.master/9b/18/f6/69334258.jpg,https://www.idealista.it/immobile/10233205/
108,8,Via Pietro Fedele s/n,1,it,{'typology': 'flat'},595932,False,A236,1,False,False,False,True,False,41.2444206,13.7387942,Minturno,False,31,sale,,120000.0,1091.0,11125211,flat,Latina,4,True,110.0,good,"{'subtitle': 'Minturno', 'title': 'Piso en Via Pietro Fedele s/n'}",https://img3.idealista.it/blur/WEB_LISTING/0/id.pro.it.image.master/fc/d0/7e/137165217.jpg,https://www.idealista.it/immobile/11125211/
109,9,Strada Provinciale,1,it,"{'typology': 'chalet', 'subTypology': 'independantHouse'}",595919,False,1591/CONCA (68292447),,False,False,,False,False,41.3758386,13.9653887,Mignano Monte Lungo,False,11,sale,"{'hasParkingSpace': True, 'isParkingSpaceIncludedInPrice': True}",80000.0,471.0,16609066,chalet,Caserta,6,False,170.0,good,"{'subtitle': 'Mignano Monte Lungo', 'title': 'Casa independiente en Strada Provinciale'}",https://img3.idealista.it/blur/WEB_LISTING/0/id.pro.it.image.master/ea/ed/e5/199049913.jpg,https://www.idealista.it/immobile/16609066/
110,10,"Viale Pietro Fedele, 87",3,it,{'typology': 'flat'},595904,False,,en,False,False,False,False,False,41.2450337,13.7393306,Minturno,False,17,sale,"{'hasParkingSpace': True, 'isParkingSpaceIncludedInPrice': True}",135000.0,1500.0,11416038,flat,Latina,3,True,90.0,good,"{'subtitle': 'Minturno', 'title': 'Piso en Viale Pietro Fedele, 87'}",https://img3.idealista.it/blur/WEB_LISTING/0/id.pro.it.image.master/27/bb/a8/207089350.jpg,https://www.idealista.it/immobile/11416038/
111,11,Viale Pietro Fedele s/n,2,it,{'typology': 'flat'},595902,False,282A,3,False,False,False,True,False,41.2439467,13.7373535,Minturno,False,15,sale,,155000.0,1520.0,15607633,flat,Latina,6,True,102.0,renew,"{'subtitle': 'Minturno', 'title': 'Piso en Viale Pietro Fedele s/n'}",https://img3.idealista.it/blur/WEB_LISTING/0/id.pro.it.image.master/e7/41/6f/180482812.jpg,https://www.idealista.it/immobile/15607633/
112,12,Viale Pietro Fedele s/n,2,it,{'typology': 'flat'},595902,False,Cp0209,1,False,False,False,False,False,41.2439467,13.7373535,Minturno,False,29,sale,"{'hasParkingSpace': True, 'isParkingSpaceIncludedInPrice': True}",195000.0,1250.0,17258101,flat,Latina,3,True,156.0,good,"{'subtitle': 'Minturno', 'title': 'Piso en Viale Pietro Fedele s/n'}",https://img3.idealista.it/blur/WEB_LISTING/0/id.pro.it.image.master/a1/3d/1d/212028912.jpg,https://www.idealista.it/immobile/17258101/
113,13,"Via Pastino Grande, 5 S",2,it,"{'typology': 'chalet', 'subTypology': 'terracedHouse'}",595900,False,,,False,False,,False,False,41.2491495,13.7466256,Minturno,False,26,sale,"{'hasParkingSpace': True, 'isParkingSpaceIncludedInPrice': True}",175000.0,1446.0,15207725,chalet,Latina,4,True,121.0,good,"{'subtitle': 'Minturno', 'title': 'Chalet adosado en Via Pastino Grande, 5 S'}",https://img3.idealista.it/blur/WEB_LISTING/0/id.pro.it.image.master/1b/f1/9d/173612086.jpg,https://www.idealista.it/immobile/15207725/
114,14,Strada Provinciale 51,3,it,"{'typology': 'chalet', 'subTypology': 'villa'}",595891,False,V 321,,False,False,,True,False,42.0137119,14.8692782,Petacciato,False,58,sale,"{'hasParkingSpace': True, 'isParkingSpaceIncludedInPrice': True}",390000.0,1054.0,17633226,chalet,Campobasso,10,False,370.0,good,"{'subtitle': 'Petacciato', 'title': 'Villa en Strada Provinciale 51'}",https://img3.idealista.it/blur/WEB_LISTING/0/id.pro.it.image.master/df/ef/ae/220570206.jpg,https://www.idealista.it/immobile/17633226/
115,15,"Via per Castelforte, 117",1,it,{'typology': 'flat'},595868,False,,1,False,False,False,False,False,41.2593667,13.7642023,Minturno,False,11,sale,,82000.0,1171.0,16060267,flat,Latina,3,True,70.0,good,"{'subtitle': 'Minturno', 'title': 'Piso en Via per Castelforte, 117'}",https://img3.idealista.it/blur/WEB_LISTING/0/id.pro.it.image.master/c1/26/69/189208744.jpg,https://www.idealista.it/immobile/16060267/
116,16,Via Adriatico s/n,2,it,{'typology': 'flat'},595847,False,0411,en,False,False,False,False,False,42.0091803,14.8630631,Petacciato,False,2,sale,"{'hasParkingSpace': True, 'isParkingSpaceIncludedInPrice': True}",110000.0,1222.0,14923078,flat,Campobasso,3,True,90.0,good,"{'subtitle': 'Petacciato', 'title': 'Piso en Via Adriatico s/n'}",https://img3.idealista.it/blur/WEB_LISTING/0/id.pro.it.image.master/41/21/87/169029837.jpg,https://www.idealista.it/immobile/14923078/
117,17,Minturno,2,it,"{'typology': 'chalet', 'subTypology': 'independantHouse'}",595838,False,A160VRG,,False,False,,False,False,41.2477035,13.7427894,Minturno,False,9,sale,,98000.0,1089.0,17393866,chalet,Latina,3,False,90.0,,"{'subtitle': 'Minturno', 'title': 'Casa independiente'}",https://img3.idealista.it/blur/WEB_LISTING/0/id.pro.it.image.master/5d/4d/f3/214778530.jpg,https://www.idealista.it/immobile/17393866/
118,18,Via RANDACCIO,1,it,"{'typology': 'chalet', 'subTypology': 'independantHouse'}",595835,False,,,False,False,,False,False,41.2904132,13.8182301,Santi Cosma e Damiano,False,19,sale,"{'hasParkingSpace': True, 'isParkingSpaceIncludedInPrice': True}",125000.0,625.0,14614990,chalet,Latina,4,False,200.0,good,"{'subtitle': 'Santi Cosma e Damiano', 'title': 'Casa independiente en Via RANDACCIO'}",https://img3.idealista.it/blur/WEB_LISTING/0/id.pro.it.image.master/3c/7d/12/154522473.jpg,https://www.idealista.it/immobile/14614990/
119,19,Minturno,1,it,{'typology': 'flat'},595828,False,33681003-22,2,False,False,False,False,False,41.2449363,13.7376436,Minturno,False,26,sale,"{'hasParkingSpace': True, 'isParkingSpaceIncludedInPrice': True}",75000.0,1500.0,17952597,flat,Latina,2,False,50.0,good,"{'subtitle': 'Minturno', 'title': 'Piso'}",https://img3.idealista.it/blur/WEB_LISTING/0/id.pro.it.image.master/07/9a/ff/226144200.jpg,https://www.idealista.it/immobile/17952597/
120,20,"Via Napoli, 55",2,it,{'typology': 'flat'},595820,False,0456,1,False,False,False,False,False,42.007875,14.861047,Petacciato,False,16,sale,"{'hasParkingSpace': True, 'isParkingSpaceIncludedInPrice': True}",99750.0,1108.0,15760165,flat,Campobasso,3,True,90.0,good,"{'subtitle': 'Petacciato', 'title': 'Piso en Via Napoli, 55'}",https://img3.idealista.it/blur/WEB_LISTING/0/id.pro.it.image.master/eb/be/14/183119240.jpg,https://www.idealista.it/immobile/15760165/
121,21,Via Garibaldi s/n,3,it,"{'typology': 'chalet', 'subTypology': 'villa'}",595798,False,VA73,,False,False,,True,False,41.2929102,13.8218512,Castelforte,False,47,sale,"{'hasParkingSpace': True, 'isParkingSpaceIncludedInPrice': True}",320000.0,1391.0,17413545,chalet,Latina,6,True,230.0,good,"{'subtitle': 'Castelforte', 'title': 'Villa en Via Garibaldi s/n'}",https://img3.idealista.it/blur/WEB_LISTING/0/id.pro.it.image.master/04/73/d4/215167806.jpg,https://www.idealista.it/immobile/17413545/
122,22,Giuseppe Garibaldi s/n,1,it,{'typology': 'flat'},595798,False,A278,bj,False,False,False,False,False,41.2929102,13.8218512,Castelforte,False,22,sale,,78000.0,459.0,12399734,flat,Latina,3,True,170.0,renew,"{'subtitle': 'Castelforte', 'title': 'Piso en Giuseppe Garibaldi s/n'}",https://img3.idealista.it/blur/WEB_LISTING/0/id.pro.it.image.master/9d/e5/27/107905086.jpg,https://www.idealista.it/immobile/12399734/
123,23,Minturno,1,it,{'typology': 'flat'},595795,False,aa565,en,False,False,False,False,False,41.2609717,13.7656007,Minturno,False,19,sale,,120000.0,1846.0,17935360,flat,Latina,3,False,65.0,good,"{'subtitle': 'Minturno', 'title': 'Piso'}",https://img3.idealista.it/blur/WEB_LISTING/0/id.pro.it.image.master/9c/e8/2b/225820158.jpg,https://www.idealista.it/immobile/17935360/
124,24,Petacciato,1,it,{'typology': 'flat'},595794,False,0402,3,False,False,False,False,False,42.0080776,14.8608643,Petacciato,False,1,sale,,40000.0,571.0,14901089,flat,Campobasso,3,False,70.0,good,"{'subtitle': 'Petacciato', 'title': 'Piso'}",https://img3.idealista.it/blur/WEB_LISTING/0/id.pro.it.image.master/a5/50/e6/168505618.jpg,https://www.idealista.it/immobile/14901089/
125,25,Pettoranello del Molise,3,it,"{'typology': 'chalet', 'subTypology': 'independantHouse'}",595783,False,V058,,False,False,,False,False,41.575628,14.277868,Pettoranello del Molise,False,13,sale,"{'hasParkingSpace': True, 'isParkingSpaceIncludedInPrice': True}",60000.0,414.0,17408350,chalet,Isernia,3,False,145.0,good,"{'subtitle': 'Pettoranello del Molise', 'title': 'Casa independiente'}",https://img3.idealista.it/blur/WEB_LISTING/0/id.pro.it.image.master/3e/91/73/215084318.jpg,https://www.idealista.it/immobile/17408350/
126,26,"Via Pier Paolo Pasolini, 68",4,it,"{'typology': 'chalet', 'subTypology': 'semidetachedHouse'}",595782,False,0469,,False,False,,False,False,42.0054633,14.8574954,Petacciato,False,6,sale,"{'hasParkingSpace': True, 'isParkingSpaceIncludedInPrice': True}",330000.0,1320.0,16968646,chalet,Campobasso,8,True,250.0,good,"{'subtitle': 'Petacciato', 'title': 'Chalet pareado en Via Pier Paolo Pasolini, 68'}",https://img3.idealista.it/blur/WEB_LISTING/0/id.pro.it.image.master/19/d0/f8/206051943.jpg,https://www.idealista.it/immobile/16968646/
127,27,Petacciato,3,it,"{'typology': 'chalet', 'subTypology': 'villa'}",595778,False,0474,,False,False,,False,False,42.0072486,14.8596037,Petacciato,False,12,sale,,199000.0,796.0,17343823,chalet,Campobasso,7,False,250.0,good,"{'subtitle': 'Petacciato', 'title': 'Villa'}",https://img3.idealista.it/blur/WEB_LISTING/0/id.pro.it.image.master/55/9f/6e/213749248.jpg,https://www.idealista.it/immobile/17343823/
128,28,Via Aquila,1,it,"{'typology': 'chalet', 'subTypology': 'independantHouse'}",595765,False,48/19,,False,False,,False,False,42.0085579,14.8609832,Petacciato,False,7,sale,,105000.0,875.0,17909553,chalet,Campobasso,3,False,120.0,renew,"{'subtitle': 'Petacciato', 'title': 'Casa independiente en Via Aquila'}",https://img3.idealista.it/blur/WEB_LISTING/0/id.pro.it.image.master/61/f9/fb/225322364.jpg,https://www.idealista.it/immobile/17909553/
129,29,Pietro Fedele,2,it,{'typology': 'flat'},595755,False,1010,2,False,False,False,False,False,41.2446467,13.7356535,Minturno,False,15,sale,"{'hasParkingSpace': True, 'isParkingSpaceIncludedInPrice': True}",158000.0,1317.0,17371638,flat,Latina,3,False,120.0,good,"{'subtitle': 'Minturno', 'title': 'Piso en Pietro Fedele'}",https://img3.idealista.it/blur/WEB_LISTING/0/id.pro.it.image.master/32/aa/0a/214319512.jpg,https://www.idealista.it/immobile/17371638/
130,30,"Via Catania, 110",2,it,"{'typology': 'chalet', 'subTypology': 'independantHouse'}",595749,False,0450,,False,False,,False,False,42.0075282,14.8594682,Petacciato,False,6,sale,,80000.0,667.0,15520226,chalet,Campobasso,7,True,120.0,good,"{'subtitle': 'Petacciato', 'title': 'Casa independiente en Via Catania, 110'}",https://img3.idealista.it/blur/WEB_LISTING/0/id.pro.it.image.master/df/4a/8a/178934657.jpg,https://www.idealista.it/immobile/15520226/
131,31,"Via Calvario, 50",2,it,"{'typology': 'chalet', 'subTypology': 'villa'}",595735,False,2,,False,False,,True,False,41.574957,14.276007,Pettoranello del Molise,False,27,sale,"{'hasParkingSpace': True, 'isParkingSpaceIncludedInPrice': True}",100000.0,833.0,15247432,chalet,Isernia,5,True,120.0,good,"{'subtitle': 'Pettoranello del Molise', 'title': 'Villa en Via Calvario, 50'}",https://img3.idealista.it/blur/WEB_LISTING/0/id.pro.it.image.master/54/88/ec/189032025.jpg,https://www.idealista.it/immobile/15247432/
132,32,Petacciato,2,it,"{'typology': 'chalet', 'subTypology': 'terracedHouse'}",595720,False,0422,,False,False,,False,False,42.0103803,14.8624631,Petacciato,False,4,sale,"{'hasParkingSpace': True, 'isParkingSpaceIncludedInPrice': True}",105000.0,656.0,14901033,chalet,Campobasso,6,False,160.0,renew,"{'subtitle': 'Petacciato', 'title': 'Chalet adosado'}",https://img3.idealista.it/blur/WEB_LISTING/0/id.pro.it.image.master/7d/7d/6e/168505461.jpg,https://www.idealista.it/immobile/14901033/
133,33,Via Vittoria,2,it,{'typology': 'flat'},595715,False,35/19,2,False,False,False,False,False,42.0099182,14.8618226,Petacciato,False,10,sale,,128000.0,674.0,17467748,flat,Campobasso,4,False,190.0,good,"{'subtitle': 'Petacciato', 'title': 'Piso en Via Vittoria'}",https://img3.idealista.it/blur/WEB_LISTING/0/id.pro.it.image.master/74/34/3a/216642162.jpg,https://www.idealista.it/immobile/17467748/
134,34,Aquila,2,it,"{'typology': 'chalet', 'subTypology': 'independantHouse'}",595706,False,21,,False,False,,False,False,42.0093257,14.860957,Petacciato,False,4,sale,,68000.0,567.0,13768225,chalet,Campobasso,7,False,120.0,renew,"{'subtitle': 'Petacciato', 'title': 'Casa independiente en Aquila'}",https://img3.idealista.it/blur/WEB_LISTING/0/id.pro.it.image.master/c5/46/4e/138354198.jpg,https://www.idealista.it/immobile/13768225/
135,35,Minturno,1,it,{'typology': 'flat'},595706,False,A158VRG,1,False,False,False,False,False,41.2456363,13.7364436,Minturno,False,10,sale,"{'hasParkingSpace': True, 'isParkingSpaceIncludedInPrice': True}",75000.0,1500.0,15858500,flat,Latina,2,False,50.0,,"{'subtitle': 'Minturno', 'title': 'Piso'}",https://img3.idealista.it/blur/WEB_LISTING/0/id.pro.it.image.master/ba/9a/d2/185301822.jpg,https://www.idealista.it/immobile/15858500/
136,36,Petacciato,2,it,"{'typology': 'flat', 'subTypology': 'duplex'}",595693,False,0350,1,False,False,False,False,False,42.0105776,14.8622643,Petacciato,False,1,sale,,180000.0,1800.0,14901097,duplex,Campobasso,6,False,100.0,renew,"{'subtitle': 'Petacciato', 'title': 'Dúplex'}",https://img3.idealista.it/blur/WEB_LISTING/0/id.pro.it.image.master/9d/fb/af/168505772.jpg,https://www.idealista.it/immobile/14901097/
137,37,Petacciato,3,it,"{'typology': 'chalet', 'subTypology': 'terracedHouse'}",595692,False,V109 (65798589),,False,False,,False,False,42.01152,14.86339,Petacciato,False,6,sale,,180000.0,818.0,13558970,chalet,Campobasso,5,False,220.0,good,"{'subtitle': 'Petacciato', 'title': 'Chalet adosado'}",https://img3.idealista.it/blur/WEB_LISTING/0/id.pro.it.image.master/58/28/b7/163986445.jpg,https://www.idealista.it/immobile/13558970/
138,38,Minturno,2,it,{'typology': 'flat'},595689,False,A173VRG,bj,False,False,False,False,False,41.2480131,13.7403673,Minturno,False,13,sale,,135000.0,1500.0,17127404,flat,Latina,4,False,90.0,renew,"{'subtitle': 'Minturno', 'title': 'Piso'}",https://img3.idealista.it/blur/WEB_LISTING/0/id.pro.it.image.master/df/09/ec/209422326.jpg,https://www.idealista.it/immobile/17127404/
139,39,"Via Pier Paolo Pasolini, 10",5,it,"{'typology': 'chalet', 'subTypology': 'villa'}",595673,False,0485,,False,False,,False,False,42.0075842,14.8582942,Petacciato,False,17,sale,"{'hasParkingSpace': True, 'isParkingSpaceIncludedInPrice': True}",750000.0,1500.0,18051741,chalet,Campobasso,10,True,500.0,good,"{'subtitle': 'Petacciato', 'title': 'Villa en Via Pier Paolo Pasolini, 10'}",https://img3.idealista.it/blur/WEB_LISTING/0/id.pro.it.image.master/2d/9c/c7/228026614.jpg,https://www.idealista.it/immobile/18051741/
140,40,Petacciato,1,it,{'typology': 'flat'},595659,False,0400,2,False,False,False,False,False,42.0084818,14.8591617,Petacciato,False,1,sale,,75000.0,1071.0,14901093,flat,Campobasso,3,False,70.0,good,"{'subtitle': 'Petacciato', 'title': 'Piso'}",https://img3.idealista.it/blur/WEB_LISTING/0/id.pro.it.image.master/1d/4d/84/168505686.jpg,https://www.idealista.it/immobile/14901093/
141,41,Via GARIBALDI,2,it,{'typology': 'flat'},595659,False,,bj,False,False,False,False,False,41.2939102,13.8208512,Castelforte,False,18,sale,,69000.0,460.0,17674180,flat,Latina,4,False,150.0,good,"{'subtitle': 'Castelforte', 'title': 'Piso en Via GARIBALDI'}",https://img3.idealista.it/blur/WEB_LISTING/0/id.pro.it.image.master/82/a8/f6/220850636.jpg,https://www.idealista.it/immobile/17674180/
142,42,"Via Danimarca, 1",2,it,"{'typology': 'chalet', 'subTypology': 'semidetachedHouse'}",595650,False,0440,,False,False,,False,False,42.0113108,14.8624493,Petacciato,False,4,sale,,135000.0,450.0,14889166,chalet,Campobasso,6,True,300.0,good,"{'subtitle': 'Petacciato', 'title': 'Chalet pareado en Via Danimarca, 1'}",https://img3.idealista.it/blur/WEB_LISTING/0/id.pro.it.image.master/06/06/88/213738386.jpg,https://www.idealista.it/immobile/14889166/
143,43,Piazza Francia s/n,1,it,{'typology': 'flat'},595614,False,0459,1,False,False,False,False,False,42.0119966,14.8626858,Petacciato,False,9,sale,"{'hasParkingSpace': True, 'isParkingSpaceIncludedInPrice': True}",130000.0,1040.0,16328985,flat,Campobasso,4,True,125.0,good,"{'subtitle': 'Petacciato', 'title': 'Piso en Piazza Francia s/n'}",https://img3.idealista.it/blur/WEB_LISTING/0/id.pro.it.image.master/8e/ef/ae/194201638.jpg,https://www.idealista.it/immobile/16328985/
144,44,"Via Vittoria, 62",2,it,"{'typology': 'chalet', 'subTypology': 'independantHouse'}",595610,False,0460,,False,False,,False,False,42.0098292,14.8599997,Petacciato,False,11,sale,,70000.0,1000.0,16513186,chalet,Campobasso,5,True,70.0,good,"{'subtitle': 'Petacciato', 'title': 'Casa independiente en Via Vittoria, 62'}",https://img3.idealista.it/blur/WEB_LISTING/0/id.pro.it.image.master/3c/3a/b2/223209688.jpg,https://www.idealista.it/immobile/16513186/
145,45,Petacciato,1,it,"{'typology': 'flat', 'subTypology': 'penthouse'}",595592,False,0415,2,False,False,False,False,False,42.0126708,14.8631533,Petacciato,False,4,sale,,95000.0,864.0,14894606,penthouse,Campobasso,5,False,110.0,good,"{'subtitle': 'Petacciato', 'title': 'Ático'}",https://img3.idealista.it/blur/WEB_LISTING/0/id.pro.it.image.master/c4/e4/9d/168391145.jpg,https://www.idealista.it/immobile/14894606/
146,46,Petacciato,3,it,"{'typology': 'chalet', 'subTypology': 'independantHouse'}",595590,False,CV04,,False,False,,False,False,42.0110683,14.8611683,Petacciato,False,35,sale,"{'hasParkingSpace': True, 'isParkingSpaceIncludedInPrice': True}",400000.0,1053.0,17036460,chalet,Campobasso,10,False,380.0,good,"{'subtitle': 'Petacciato', 'title': 'Casa independiente'}",https://img3.idealista.it/blur/WEB_LISTING/0/id.pro.it.image.master/cc/45/d5/207641320.jpg,https://www.idealista.it/immobile/17036460/
147,47,Via PER CASTELFORTE,2,it,"{'typology': 'chalet', 'subTypology': 'villa'}",595556,False,,,False,False,,False,False,41.2577639,13.7551181,Minturno,False,14,sale,"{'hasParkingSpace': True, 'isParkingSpaceIncludedInPrice': True}",240000.0,1200.0,16889470,chalet,Latina,4,False,200.0,renew,"{'subtitle': 'Minturno', 'title': 'Villa en Via PER CASTELFORTE'}",https://img3.idealista.it/blur/WEB_LISTING/0/id.pro.it.image.master/e0/5f/cc/204510766.jpg,https://www.idealista.it/immobile/16889470/
148,48,Castelforte,4,it,"{'typology': 'chalet', 'subTypology': 'terracedHouse'}",595556,False,A133VRG,en,False,False,,False,False,41.2978038,13.8256086,Castelforte,False,13,sale,,170000.0,739.0,17676532,chalet,Latina,6,False,230.0,,"{'subtitle': 'Castelforte', 'title': 'Chalet adosado'}",https://img3.idealista.it/blur/WEB_LISTING/0/id.pro.it.image.master/0e/78/25/220910309.jpg,https://www.idealista.it/immobile/17676532/
149,49,"Via Per Castelforte, 158",1,it,{'typology': 'flat'},595554,False,VIA PER CASTELFORTE 158  (72509846),2,False,False,False,True,False,41.2593198,13.7578492,Minturno,False,6,sale,,63000.0,377.0,16596833,flat,Latina,4,True,167.0,renew,"{'subtitle': 'Minturno', 'title': 'Piso en Via Per Castelforte, 158'}",https://img3.idealista.it/blur/WEB_LISTING/0/id.pro.it.image.master/eb/46/fb/198842765.jpg,https://www.idealista.it/immobile/16596833/
150,0,Contrada Località c.da Orsoni s/n,4,it,"{'typology': 'countryHouse', 'subTypology': 'casalicascine'}",595544,False,VRA-1606,,False,False,,True,False,41.7024106,14.457392,Bagnoli del Trigno,False,8,sale,,100000.0,2.0,18099761,countryHouse,Isernia,12,True,62725.0,renew,"{'subtitle': 'Bagnoli del Trigno', 'title': 'Casa de campo/granja en Contrada Località c.da Orsoni s/n'}",https://img3.idealista.it/blur/WEB_LISTING/0/id.pro.it.image.master/87/83/78/228911317.jpg,https://www.idealista.it/immobile/18099761/
151,1,"Via Catania, 42",2,it,"{'typology': 'chalet', 'subTypology': 'independantHouse'}",595540,False,0476,,False,False,,False,False,42.010235,14.859348,Petacciato,False,2,sale,,35000.0,318.0,17800307,chalet,Campobasso,5,True,110.0,renew,"{'subtitle': 'Petacciato', 'title': 'Casa independiente en Via Catania, 42'}",https://img3.idealista.it/blur/WEB_LISTING/0/id.pro.it.image.master/50/10/99/223211177.jpg,https://www.idealista.it/immobile/17800307/
152,2,Via PIAVE s/n,1,it,{'typology': 'flat'},595539,False,MQ149,3,False,False,False,False,False,41.5417737,14.2223401,Sant`Agapito,False,7,sale,,45000.0,692.0,15390970,flat,Isernia,3,True,65.0,good,"{'subtitle': 'Sant`Agapito', 'title': 'Piso en Via PIAVE s/n'}",https://img3.idealista.it/blur/WEB_LISTING/0/id.pro.it.image.master/2f/f5/77/176736279.jpg,https://www.idealista.it/immobile/15390970/
153,3,Via Lungomare s/n,1,it,{'typology': 'flat'},595510,False,A345,1,False,False,False,False,False,41.2438821,13.7293514,Minturno,False,24,sale,"{'hasParkingSpace': True, 'isParkingSpaceIncludedInPrice': True}",120000.0,1714.0,17371719,flat,Latina,3,True,70.0,good,"{'subtitle': 'Minturno', 'title': 'Piso en Via Lungomare s/n'}",https://img3.idealista.it/blur/WEB_LISTING/0/id.pro.it.image.master/5d/5c/c7/214321089.jpg,https://www.idealista.it/immobile/17371719/
154,4,"Via Indipendenza, 24",2,it,"{'typology': 'chalet', 'subTypology': 'independantHouse'}",595502,False,0479,,False,False,,False,False,42.0108206,14.8594419,Petacciato,False,5,sale,"{'hasParkingSpace': True, 'isParkingSpaceIncludedInPrice': True}",80000.0,533.0,17759229,chalet,Campobasso,5,True,150.0,renew,"{'subtitle': 'Petacciato', 'title': 'Casa independiente en Via Indipendenza, 24'}",https://img3.idealista.it/blur/WEB_LISTING/0/id.pro.it.image.master/6e/96/08/222415363.jpg,https://www.idealista.it/immobile/17759229/
155,5,"Via Giuseppe Garibaldi, 152",2,it,"{'typology': 'chalet', 'subTypology': 'independantHouse'}",595497,False,VV0435 (57702808),,False,False,,False,False,41.2968327,13.8227581,Castelforte,False,13,sale,,60000.0,667.0,10185946,chalet,Latina,5,True,90.0,renew,"{'subtitle': 'Castelforte', 'title': 'Casa independiente en Via Giuseppe Garibaldi, 152'}",https://img3.idealista.it/blur/WEB_LISTING/0/id.pro.it.image.master/38/69/62/164812342.jpg,https://www.idealista.it/immobile/10185946/
156,6,Petacciato,2,it,"{'typology': 'countryHouse', 'subTypology': 'casaDePueblo'}",595486,False,0124,,False,False,,False,False,42.0103486,14.8586037,Petacciato,False,4,sale,"{'hasParkingSpace': True, 'isParkingSpaceIncludedInPrice': True}",99000.0,550.0,14901066,countryHouse,Campobasso,7,False,180.0,good,"{'subtitle': 'Petacciato', 'title': 'Casa de pueblo'}",https://img3.idealista.it/blur/WEB_LISTING/0/id.pro.it.image.master/95/2e/9e/168505482.jpg,https://www.idealista.it/immobile/14901066/
157,7,Via Per Castelforte,4,it,"{'typology': 'chalet', 'subTypology': 'villa'}",595460,False,,,False,False,,False,False,41.2581924,13.7539609,Minturno,False,13,sale,,150000.0,500.0,14180835,chalet,Latina,10,False,300.0,good,"{'subtitle': 'Minturno', 'title': 'Villa en Via Per Castelforte'}",https://img3.idealista.it/blur/WEB_LISTING/0/id.pro.it.image.master/43/27/56/146021232.jpg,https://www.idealista.it/immobile/14180835/
158,8,Petacciato,3,it,"{'typology': 'countryHouse', 'subTypology': 'casalicascine'}",595444,False,CV35,,False,False,,False,False,41.9995588,14.8447914,Petacciato,False,57,sale,"{'hasParkingSpace': True, 'isParkingSpaceIncludedInPrice': True}",300000.0,952.0,17036478,countryHouse,Campobasso,8,False,315.0,good,"{'subtitle': 'Petacciato', 'title': 'Casa de campo/granja'}",https://img3.idealista.it/blur/WEB_LISTING/0/id.pro.it.image.master/4a/86/13/207641755.jpg,https://www.idealista.it/immobile/17036478/
159,9,Via santa reparata s/n,1,it,{'typology': 'flat'},595442,False,,1,False,False,False,False,False,41.2465917,13.7328438,Minturno,False,7,sale,"{'hasParkingSpace': True, 'isParkingSpaceIncludedInPrice': True}",73000.0,1327.0,10492227,flat,Latina,2,True,55.0,good,"{'subtitle': 'Minturno', 'title': 'Piso en Via santa reparata s/n'}",https://img3.idealista.it/blur/WEB_LISTING/0/id.pro.it.image.master/79/32/b4/74337780.jpg,https://www.idealista.it/immobile/10492227/
160,10,"Via Alfredo Fusco, 25",1,it,{'typology': 'flat'},595435,False,156/2003 (Latin/1692863),,False,False,,True,False,41.2984776,13.8244013,Castelforte,False,5,sale,,33600.0,425.0,17981840,flat,Latina,3,True,79.0,,"{'subtitle': 'Castelforte', 'title': 'Piso en Via Alfredo Fusco, 25'}",https://img3.idealista.it/blur/WEB_LISTING/0/id.pro.it.image.master/c4/0d/66/226706608.jpg,https://www.idealista.it/immobile/17981840/
161,11,Castelforte,4,it,"{'typology': 'chalet', 'subTypology': 'terracedHouse'}",595430,False,a132VRG,en,False,False,,False,False,41.2990038,13.8252086,Castelforte,False,19,sale,,190000.0,805.0,17676521,chalet,Latina,7,False,236.0,,"{'subtitle': 'Castelforte', 'title': 'Chalet adosado'}",https://img3.idealista.it/blur/WEB_LISTING/0/id.pro.it.image.master/13/45/d7/220910163.jpg,https://www.idealista.it/immobile/17676521/
162,12,Santi Cosma e Damiano,2,it,{'typology': 'flat'},595420,False,A89VRG,2,False,False,False,False,False,41.2819211,13.7951482,Santi Cosma e Damiano,False,15,sale,"{'hasParkingSpace': True, 'isParkingSpaceIncludedInPrice': True}",99000.0,990.0,15462347,flat,Latina,4,False,100.0,good,"{'subtitle': 'Santi Cosma e Damiano', 'title': 'Piso'}",https://img3.idealista.it/blur/WEB_LISTING/0/id.pro.it.image.master/d9/83/a4/177946111.jpg,https://www.idealista.it/immobile/15462347/
163,13,CRISTOFORO COLOMBO s/n,1,it,{'typology': 'flat'},595408,False,ANGELO D'AVANZO TEL 0825781758,en,False,False,False,False,False,41.2447891,13.7289372,Minturno,False,46,sale,,190000.0,1900.0,17478875,flat,Latina,4,True,100.0,good,"{'subtitle': 'Minturno', 'title': 'Piso en CRISTOFORO COLOMBO s/n'}",https://img3.idealista.it/blur/WEB_LISTING/0/id.pro.it.image.master/a4/04/e6/216507540.jpg,https://www.idealista.it/immobile/17478875/
164,14,Via Cristoforo Colombo s/n,1,it,{'typology': 'flat'},595408,False,a267,1,False,False,False,False,False,41.2447891,13.7289372,Minturno,False,7,sale,,100000.0,2000.0,11831265,flat,Latina,3,True,50.0,good,"{'subtitle': 'Minturno', 'title': 'Piso en Via Cristoforo Colombo s/n'}",https://img3.idealista.it/blur/WEB_LISTING/0/id.pro.it.image.master/f1/ba/97/98470974.jpg,https://www.idealista.it/immobile/11831265/
165,15,Petacciato,1,it,{'typology': 'flat'},595396,False,0405,2,False,False,False,False,False,42.0112776,14.8582643,Petacciato,False,1,sale,,69000.0,986.0,14901076,flat,Campobasso,3,False,70.0,good,"{'subtitle': 'Petacciato', 'title': 'Piso'}",https://img3.idealista.it/blur/WEB_LISTING/0/id.pro.it.image.master/7d/65/18/168505600.jpg,https://www.idealista.it/immobile/14901076/
166,16,Santi Cosma e Damiano,2,it,{'typology': 'countryHouse'},595395,False,2189,bj,False,False,,False,False,41.2823211,13.7953482,Santi Cosma e Damiano,False,18,sale,,47000.0,490.0,16691015,countryHouse,Latina,4,False,96.0,renew,"{'subtitle': 'Santi Cosma e Damiano', 'title': 'Casa rural'}",https://img3.idealista.it/blur/WEB_LISTING/0/id.pro.it.image.master/c5/72/99/200501801.jpg,https://www.idealista.it/immobile/16691015/
167,17,"Catania, 2",1,it,{'typology': 'flat'},595389,False,0477,1,False,False,True,False,False,42.012153,14.85921,Petacciato,False,1,sale,,75000.0,1000.0,17800319,flat,Campobasso,4,True,75.0,good,"{'subtitle': 'Petacciato', 'title': 'Piso en Catania, 2'}",https://img3.idealista.it/blur/WEB_LISTING/0/id.pro.it.image.master/27/2a/36/223211702.jpg,https://www.idealista.it/immobile/17800319/
168,18,Via giuseppe garibaldi s/n,4,it,"{'typology': 'chalet', 'subTypology': 'independantHouse'}",595387,False,A36,,False,False,,False,False,41.2979546,13.8225401,Castelforte,False,20,sale,"{'hasParkingSpace': True, 'isParkingSpaceIncludedInPrice': True}",290000.0,644.0,9453227,chalet,Latina,9,True,450.0,renew,"{'subtitle': 'Castelforte', 'title': 'Casa independiente en Via giuseppe garibaldi s/n'}",https://img3.idealista.it/blur/WEB_LISTING/0/id.pro.it.image.master/30/f1/40/51931099.jpg,https://www.idealista.it/immobile/9453227/
169,19,Via veneto s/n,1,it,"{'typology': 'chalet', 'subTypology': 'independantHouse'}",595385,False,MQ172,,False,False,,False,False,41.5438259,14.2226591,Sant`Agapito,False,3,sale,"{'hasParkingSpace': True, 'isParkingSpaceIncludedInPrice': True}",120000.0,600.0,13095102,chalet,Isernia,5,True,200.0,renew,"{'subtitle': 'Sant`Agapito', 'title': 'Casa independiente en Via veneto s/n'}",https://img3.idealista.it/blur/WEB_LISTING/0/id.pro.it.image.master/59/c1/f2/125685952.jpg,https://www.idealista.it/immobile/13095102/
170,20,Piazza XXIV Maggio,1,it,"{'typology': 'countryHouse', 'subTypology': 'masseria'}",595367,False,216,,False,False,,True,False,41.6683625,14.4060564,Civitanova del Sannio,False,15,sale,,38000.0,380.0,14421437,countryHouse,Isernia,6,False,100.0,good,"{'subtitle': 'Civitanova del Sannio', 'title': 'Masseria en Piazza XXIV Maggio'}",https://img3.idealista.it/blur/WEB_LISTING/0/id.pro.it.image.master/5a/a1/52/150584319.jpg,https://www.idealista.it/immobile/14421437/
171,21,Pastenelle s/n,2,it,"{'typology': 'chalet', 'subTypology': 'terracedHouse'}",595363,False,CP049,,False,False,,False,False,41.29883,13.82359,Castelforte,False,10,sale,"{'hasParkingSpace': True, 'isParkingSpaceIncludedInPrice': True}",145000.0,633.0,14707915,chalet,Latina,6,True,229.0,good,"{'subtitle': 'Castelforte', 'title': 'Chalet adosado en Pastenelle s/n'}",https://img3.idealista.it/blur/WEB_LISTING/0/id.pro.it.image.master/73/a4/84/156578568.jpg,https://www.idealista.it/immobile/14707915/
172,22,Castelforte,1,it,{'typology': 'flat'},595349,False,P994RG,1,False,False,False,False,False,41.2977776,13.8214766,Castelforte,False,27,sale,,85000.0,944.0,17749130,flat,Latina,4,False,90.0,good,"{'subtitle': 'Castelforte', 'title': 'Piso'}",https://img3.idealista.it/blur/WEB_LISTING/0/id.pro.it.image.master/aa/59/30/222221722.jpg,https://www.idealista.it/immobile/17749130/
173,23,Sant`Agapito,2,it,{'typology': 'flat'},595320,False,V035,2,False,False,False,True,False,41.5447768,14.2229194,Sant`Agapito,False,11,sale,"{'hasParkingSpace': True, 'isParkingSpaceIncludedInPrice': True}",49000.0,363.0,15504673,flat,Isernia,5,False,135.0,good,"{'subtitle': 'Sant`Agapito', 'title': 'Piso'}",https://img3.idealista.it/blur/WEB_LISTING/0/id.pro.it.image.master/38/fc/3c/178840582.jpg,https://www.idealista.it/immobile/15504673/
174,24,Contrada CASTAGNETO s/n,2,it,"{'typology': 'chalet', 'subTypology': 'villa'}",595314,False,AV30,,False,False,,False,False,41.3913183,13.9794859,Mignano Monte Lungo,False,26,sale,,220000.0,880.0,18081677,chalet,Caserta,6,True,250.0,good,"{'subtitle': 'Mignano Monte Lungo', 'title': 'Villa en Contrada CASTAGNETO s/n'}",https://img3.idealista.it/blur/WEB_LISTING/0/id.pro.it.image.master/0e/e1/24/228582545.jpg,https://www.idealista.it/immobile/18081677/
175,25,Salita del seggio s/n,1,it,{'typology': 'flat'},595314,False,Cp050,bj,False,False,False,False,False,41.2987721,13.8225318,Castelforte,False,15,sale,,58000.0,580.0,15269248,flat,Latina,5,True,100.0,good,"{'subtitle': 'Castelforte', 'title': 'Piso en Salita del seggio s/n'}",https://img3.idealista.it/blur/WEB_LISTING/0/id.pro.it.image.master/34/70/51/174692386.jpg,https://www.idealista.it/immobile/15269248/
176,26,Salita del seggio s/n,1,it,{'typology': 'flat'},595314,False,Cp051,1,False,False,False,False,False,41.2987721,13.8225318,Castelforte,False,16,sale,,63000.0,630.0,15269251,flat,Latina,5,True,100.0,good,"{'subtitle': 'Castelforte', 'title': 'Piso en Salita del seggio s/n'}",https://img3.idealista.it/blur/WEB_LISTING/0/id.pro.it.image.master/0b/ee/85/174692451.jpg,https://www.idealista.it/immobile/15269251/
177,27,"Via Zeccarelle, 56 -62",2,it,{'typology': 'flat'},595310,False,,1,False,False,True,True,False,41.2511459,13.7383636,Minturno,False,5,sale,"{'hasParkingSpace': True, 'isParkingSpaceIncludedInPrice': True}",215000.0,2150.0,13893663,flat,Latina,3,True,100.0,good,"{'subtitle': 'Minturno', 'title': 'Piso en Via Zeccarelle, 56 -62'}",https://img3.idealista.it/blur/WEB_LISTING/0/id.pro.it.image.master/70/b8/d0/140723380.jpg,https://www.idealista.it/immobile/13893663/
178,28,Piazza 4 novembre,1,it,"{'typology': 'countryHouse', 'subTypology': 'casaDePueblo'}",595308,False,0416,,False,False,,False,False,42.0145024,14.8607414,Petacciato,False,3,sale,,20000.0,500.0,14894568,countryHouse,Campobasso,2,False,40.0,good,"{'subtitle': 'Petacciato', 'title': 'Casa de pueblo en Piazza 4 novembre'}",https://img3.idealista.it/blur/WEB_LISTING/0/id.pro.it.image.master/05/57/51/168390874.jpg,https://www.idealista.it/immobile/14894568/
179,29,"Via Zeccarelle, 56 -62",2,it,{'typology': 'flat'},595307,False,,1,False,False,True,True,False,41.2511696,13.7383371,Minturno,False,4,sale,"{'hasParkingSpace': True, 'isParkingSpaceIncludedInPrice': True}",230000.0,1917.0,13893696,flat,Latina,4,True,120.0,good,"{'subtitle': 'Minturno', 'title': 'Piso en Via Zeccarelle, 56 -62'}",https://img3.idealista.it/blur/WEB_LISTING/0/id.pro.it.image.master/99/c5/dd/140723897.jpg,https://www.idealista.it/immobile/13893696/
180,30,Via Garigliano,1,it,"{'typology': 'flat', 'subTypology': 'duplex'}",595298,False,,1,False,False,False,False,False,41.2645567,13.7620315,Minturno,False,24,sale,,138000.0,552.0,17983497,duplex,Latina,3,False,250.0,good,"{'subtitle': 'Minturno', 'title': 'Dúplex en Via Garigliano'}",https://img3.idealista.it/blur/WEB_LISTING/0/id.pro.it.image.master/32/f5/ac/226732596.jpg,https://www.idealista.it/immobile/17983497/
181,31,Via Alfredo Fusco,2,it,{'typology': 'flat'},595295,False,A.FUSCO  (70686154),1,False,False,True,True,False,41.2990146,13.8225679,Castelforte,False,6,sale,,33600.0,207.0,15878640,flat,Latina,5,False,162.0,good,"{'subtitle': 'Castelforte', 'title': 'Piso en Via Alfredo Fusco'}",https://img3.idealista.it/blur/WEB_LISTING/0/id.pro.it.image.master/24/46/7e/185670206.jpg,https://www.idealista.it/immobile/15878640/
182,32,Castelforte,4,it,"{'typology': 'chalet', 'subTypology': 'terracedHouse'}",595291,False,a134VRG,en,False,False,,False,False,41.3000038,13.8242086,Castelforte,False,13,sale,,170000.0,739.0,17676513,chalet,Latina,6,False,230.0,,"{'subtitle': 'Castelforte', 'title': 'Chalet adosado'}",https://img3.idealista.it/blur/WEB_LISTING/0/id.pro.it.image.master/4f/a3/ab/220910121.jpg,https://www.idealista.it/immobile/17676513/
183,33,Corso Antonio Cardarelli s/n,1,it,"{'typology': 'chalet', 'subTypology': 'terracedHouse'}",595289,False,VRA-1441,,False,False,,True,False,41.6677543,14.4038107,Civitanova del Sannio,False,9,sale,,80000.0,1143.0,14828066,chalet,Isernia,3,True,70.0,good,"{'subtitle': 'Civitanova del Sannio', 'title': 'Chalet adosado en Corso Antonio Cardarelli s/n'}",https://img3.idealista.it/blur/WEB_LISTING/0/id.pro.it.image.master/5c/e2/51/162223202.jpg,https://www.idealista.it/immobile/14828066/
184,34,Corso Antonio Cardarelli s/n,1,it,{'typology': 'flat'},595289,False,VRA-1440,bj,False,False,False,True,False,41.6677543,14.4038107,Civitanova del Sannio,False,8,sale,,65000.0,929.0,14828000,flat,Isernia,3,True,70.0,good,"{'subtitle': 'Civitanova del Sannio', 'title': 'Piso en Corso Antonio Cardarelli s/n'}",https://img3.idealista.it/blur/WEB_LISTING/0/id.pro.it.image.master/73/0d/4e/162205378.jpg,https://www.idealista.it/immobile/14828000/
185,35,Via Chiesa s/n,7,it,"{'typology': 'chalet', 'subTypology': 'independantHouse'}",595283,False,VRA-1607,,False,False,,False,False,41.7063833,14.4584208,Bagnoli del Trigno,False,13,sale,,200000.0,398.0,18110216,chalet,Isernia,20,True,503.0,renew,"{'subtitle': 'Bagnoli del Trigno', 'title': 'Casa independiente en Via Chiesa s/n'}",https://img3.idealista.it/blur/WEB_LISTING/0/id.pro.it.image.master/46/86/df/229078876.jpg,https://www.idealista.it/immobile/18110216/
186,36,Sant`Agapito,1,it,"{'typology': 'chalet', 'subTypology': 'independantHouse'}",595275,False,V038,,False,False,,False,False,41.5439384,14.220825,Sant`Agapito,False,12,sale,"{'hasParkingSpace': True, 'isParkingSpaceIncludedInPrice': True}",95000.0,537.0,15653431,chalet,Isernia,8,False,177.0,good,"{'subtitle': 'Sant`Agapito', 'title': 'Casa independiente'}",https://img3.idealista.it/blur/WEB_LISTING/0/id.pro.it.image.master/a0/10/a1/181423674.jpg,https://www.idealista.it/immobile/15653431/
187,37,Petacciato,1,it,"{'typology': 'countryHouse', 'subTypology': 'casaDePueblo'}",595267,False,0438,,False,False,,False,False,42.0146935,14.8603131,Petacciato,False,2,sale,,62000.0,564.0,14894530,countryHouse,Campobasso,5,False,110.0,renew,"{'subtitle': 'Petacciato', 'title': 'Casa de pueblo'}",https://img3.idealista.it/blur/WEB_LISTING/0/id.pro.it.image.master/01/c6/db/168390813.jpg,https://www.idealista.it/immobile/14894530/
188,38,"Piazza XXIV Maggio, 43 -11",2,it,"{'typology': 'countryHouse', 'subTypology': 'masseria'}",595246,False,204,,False,False,,False,False,41.6684625,14.4040564,Civitanova del Sannio,False,15,sale,,95000.0,339.0,14421435,countryHouse,Isernia,13,True,280.0,good,"{'subtitle': 'Civitanova del Sannio', 'title': 'Masseria en Piazza XXIV Maggio, 43 -11'}",https://img3.idealista.it/blur/WEB_LISTING/0/id.pro.it.image.master/02/36/0d/150584277.jpg,https://www.idealista.it/immobile/14421435/
189,39,"Via Monticelli, 24",1,it,{'typology': 'flat'},595215,False,,1,False,False,False,False,False,41.2618537,13.7555851,Minturno,False,10,sale,"{'hasParkingSpace': True, 'isParkingSpaceIncludedInPrice': True}",89000.0,918.0,16915465,flat,Latina,3,True,97.0,good,"{'subtitle': 'Minturno', 'title': 'Piso en Via Monticelli, 24'}",https://img3.idealista.it/blur/WEB_LISTING/0/id.pro.it.image.master/09/07/0c/205024191.jpg,https://www.idealista.it/immobile/16915465/
190,40,Minturno,2,it,"{'typology': 'chalet', 'subTypology': 'independantHouse'}",595202,False,M11,,False,False,,False,False,41.268087,13.7663995,Minturno,False,3,sale,"{'hasParkingSpace': True, 'isParkingSpaceIncludedInPrice': True}",140000.0,778.0,10944443,chalet,Latina,8,False,180.0,good,"{'subtitle': 'Minturno', 'title': 'Casa independiente'}",https://img3.idealista.it/blur/WEB_LISTING/0/id.pro.it.image.master/47/c9/77/84240428.jpg,https://www.idealista.it/immobile/10944443/
191,41,Corso del popolo s/n,1,it,{'typology': 'flat'},595156,False,A337,2,False,False,False,False,False,41.2676195,13.764646,Minturno,False,11,sale,,78000.0,1068.0,16550028,flat,Latina,3,True,73.0,renew,"{'subtitle': 'Minturno', 'title': 'Piso en Corso del popolo s/n'}",https://img3.idealista.it/blur/WEB_LISTING/0/id.pro.it.image.master/24/6d/18/197971745.jpg,https://www.idealista.it/immobile/16550028/
192,42,Corso del popolo s/n,1,it,{'typology': 'flat'},595156,False,A338,3,False,False,False,False,False,41.2676195,13.764646,Minturno,False,14,sale,,70000.0,875.0,16550094,flat,Latina,3,True,80.0,renew,"{'subtitle': 'Minturno', 'title': 'Piso en Corso del popolo s/n'}",https://img3.idealista.it/blur/WEB_LISTING/0/id.pro.it.image.master/3b/a5/80/197972627.jpg,https://www.idealista.it/immobile/16550094/
193,43,Petacciato,1,it,"{'typology': 'countryHouse', 'subTypology': 'casaDePueblo'}",595151,False,0439,,False,False,,False,False,42.0161605,14.8601951,Petacciato,False,6,sale,,70000.0,412.0,14894512,countryHouse,Campobasso,7,False,170.0,renew,"{'subtitle': 'Petacciato', 'title': 'Casa de pueblo'}",https://img3.idealista.it/blur/WEB_LISTING/0/id.pro.it.image.master/1f/3d/7a/168390277.jpg,https://www.idealista.it/immobile/14894512/
194,44,"Via Alfredo Fusco, 99",3,it,{'typology': 'chalet'},595130,False,VA82 (62053078),,False,False,,True,False,41.3005553,13.8220052,Castelforte,False,20,sale,,170000.0,669.0,11958166,chalet,Latina,6,True,254.0,renew,"{'subtitle': 'Castelforte', 'title': 'Chalet en Via Alfredo Fusco, 99'}",https://img3.idealista.it/blur/WEB_LISTING/0/id.pro.it.image.master/30/1e/8d/164221808.jpg,https://www.idealista.it/immobile/11958166/
195,45,Castelforte,2,it,"{'typology': 'chalet', 'subTypology': 'independantHouse'}",595114,False,1860,,False,False,,False,False,41.3007146,13.8219679,Castelforte,False,34,sale,,77000.0,379.0,14350708,chalet,Latina,7,False,203.0,renew,"{'subtitle': 'Castelforte', 'title': 'Casa independiente'}",https://img3.idealista.it/blur/WEB_LISTING/0/id.pro.it.image.master/69/42/2f/149227901.jpg,https://www.idealista.it/immobile/14350708/
196,46,Contrada CAPRUCCIA s/n,2,it,"{'typology': 'chalet', 'subTypology': 'independantHouse'}",595096,False,VRI-1552,,False,False,,True,False,41.566046,14.25107,Isernia,False,10,sale,,135000.0,39.0,17259335,chalet,Isernia,4,True,3500.0,good,"{'subtitle': 'Isernia', 'title': 'Casa independiente en Contrada CAPRUCCIA s/n'}",https://img3.idealista.it/blur/WEB_LISTING/0/id.pro.it.image.master/7c/8d/24/212046861.jpg,https://www.idealista.it/immobile/17259335/
197,47,Località Località capruccia s/n,1,it,"{'typology': 'countryHouse', 'subTypology': 'masseria'}",595096,False,VRI-1329,,False,False,,False,False,41.566046,14.25107,Isernia,False,4,sale,,15000.0,16.0,12620738,countryHouse,Isernia,1,True,940.0,good,"{'subtitle': 'Isernia', 'title': 'Masseria en Località Località capruccia s/n'}",https://img3.idealista.it/blur/WEB_LISTING/0/id.pro.it.image.master/48/e6/61/112760924.jpg,https://www.idealista.it/immobile/12620738/
198,48,Montenero di Bisaccia,3,it,"{'typology': 'chalet', 'subTypology': 'independantHouse'}",595085,False,RIF.401 (54376342),,False,False,,False,False,41.9557613,14.7848762,Montenero di Bisaccia,False,46,sale,"{'hasParkingSpace': True, 'isParkingSpaceIncludedInPrice': True}",105000.0,438.0,13698973,chalet,Campobasso,9,False,240.0,good,"{'subtitle': 'Montenero di Bisaccia', 'title': 'Casa independiente'}",https://img3.idealista.it/blur/WEB_LISTING/0/id.pro.it.image.master/31/73/0d/173759974.jpg,https://www.idealista.it/immobile/13698973/
199,49,Via montegrappa s/n,1,it,"{'typology': 'countryHouse', 'subTypology': 'casaDePueblo'}",595083,False,0421,,False,False,,False,False,42.015946,14.8588335,Petacciato,False,3,sale,,22000.0,440.0,14894590,countryHouse,Campobasso,2,True,50.0,renew,"{'subtitle': 'Petacciato', 'title': 'Casa de pueblo en Via montegrappa s/n'}",https://img3.idealista.it/blur/WEB_LISTING/0/id.pro.it.image.master/d8/86/1e/179392581.jpg,https://www.idealista.it/immobile/14894590/
200,0,Contrada Colle di Breccia,1,it,"{'typology': 'chalet', 'subTypology': 'independantHouse'}",595044,False,0429,,False,False,,False,False,41.9838158,14.8189516,Petacciato,False,10,sale,,140000.0,933.0,18062132,chalet,Campobasso,6,False,150.0,good,"{'subtitle': 'Petacciato', 'title': 'Casa independiente en Contrada Colle di Breccia'}",https://img3.idealista.it/blur/WEB_LISTING/0/id.pro.it.image.master/ff/09/94/228200832.jpg,https://www.idealista.it/immobile/18062132/
201,1,Amerigo Vespucci s/n,3,it,"{'typology': 'chalet', 'subTypology': 'terracedHouse'}",595015,False,Cp0196,,False,False,,False,False,41.2980389,13.8153599,Santi Cosma e Damiano,False,22,sale,,50000.0,284.0,16545660,chalet,Latina,8,True,176.0,renew,"{'subtitle': 'Santi Cosma e Damiano', 'title': 'Chalet adosado en Amerigo Vespucci s/n'}",https://img3.idealista.it/blur/WEB_LISTING/0/id.pro.it.image.master/8a/3f/29/197915130.jpg,https://www.idealista.it/immobile/16545660/
202,2,Montenero di Bisaccia,2,it,"{'typology': 'chalet', 'subTypology': 'independantHouse'}",594987,False,RIF.101 (54380742),,False,False,,False,False,41.956717,14.7844492,Montenero di Bisaccia,False,9,sale,"{'hasParkingSpace': True, 'isParkingSpaceIncludedInPrice': True}",150000.0,714.0,13698982,chalet,Campobasso,6,False,210.0,good,"{'subtitle': 'Montenero di Bisaccia', 'title': 'Casa independiente'}",https://img3.idealista.it/blur/WEB_LISTING/0/id.pro.it.image.master/e0/24/6c/154685097.jpg,https://www.idealista.it/immobile/13698982/
203,3,Corso VITTORIO EMANUELE,1,it,{'typology': 'flat'},594979,False,,2,False,False,False,False,False,41.2618656,13.7508776,Minturno,False,7,sale,,55000.0,846.0,17614208,flat,Latina,2,False,65.0,good,"{'subtitle': 'Minturno', 'title': 'Piso en Corso VITTORIO EMANUELE'}",https://img3.idealista.it/blur/WEB_LISTING/0/id.pro.it.image.master/ab/c8/ee/219562009.jpg,https://www.idealista.it/immobile/17614208/
204,4,Via Tommaso Gentile,2,it,{'typology': 'chalet'},594977,False,581 (75121346),,False,False,,True,False,41.9578566,14.7857059,Montenero di Bisaccia,False,16,sale,,29000.0,309.0,17536414,chalet,Campobasso,5,False,94.0,renew,"{'subtitle': 'Montenero di Bisaccia', 'title': 'Chalet en Via Tommaso Gentile'}",https://img3.idealista.it/blur/WEB_LISTING/0/id.pro.it.image.master/b3/88/74/217696366.jpg,https://www.idealista.it/immobile/17536414/
205,5,"Via Liberato Saltarelli, 35 -1",1,it,{'typology': 'flat'},594975,False,10073/2010 (Latin/1699370),,False,False,,True,False,41.2676931,13.7611673,Minturno,False,3,sale,,55125.0,776.0,18051350,flat,Latina,4,True,71.0,,"{'subtitle': 'Minturno', 'title': 'Piso en Via Liberato Saltarelli, 35 -1'}",https://img3.idealista.it/blur/WEB_LISTING/0/id.pro.it.image.master/9d/bc/d1/228020018.jpg,https://www.idealista.it/immobile/18051350/
206,6,Via liberato saltarelli tufo s/n,1,it,{'typology': 'flat'},594973,False,a275b,1,False,False,False,False,False,41.2676857,13.7611083,Minturno,False,12,sale,,63000.0,900.0,12375073,flat,Latina,3,True,70.0,good,"{'subtitle': 'Minturno', 'title': 'Piso en Via liberato saltarelli tufo s/n'}",https://img3.idealista.it/blur/WEB_LISTING/0/id.pro.it.image.master/47/07/14/107385413.jpg,https://www.idealista.it/immobile/12375073/
207,7,Via Liberato Saltarelli Tufo s/n,1,it,{'typology': 'flat'},594973,False,a275a,1,False,False,False,False,False,41.2676857,13.7611083,Minturno,False,8,sale,,63000.0,900.0,12374733,flat,Latina,3,True,70.0,good,"{'subtitle': 'Minturno', 'title': 'Piso en Via Liberato Saltarelli Tufo s/n'}",https://img3.idealista.it/blur/WEB_LISTING/0/id.pro.it.image.master/45/8a/3b/107379349.jpg,https://www.idealista.it/immobile/12374733/
208,8,Montenero di Bisaccia,3,it,"{'typology': 'chalet', 'subTypology': 'independantHouse'}",594971,False,rif.218 (54302937),,False,False,,False,False,41.9556613,14.7828762,Montenero di Bisaccia,False,14,sale,"{'hasParkingSpace': True, 'isParkingSpaceIncludedInPrice': True}",80000.0,571.0,13698962,chalet,Campobasso,6,False,140.0,good,"{'subtitle': 'Montenero di Bisaccia', 'title': 'Casa independiente'}",https://img3.idealista.it/blur/WEB_LISTING/0/id.pro.it.image.master/44/d4/ff/154683488.jpg,https://www.idealista.it/immobile/13698962/
209,9,Via cavallerizza s/n,1,it,{'typology': 'flat'},594971,False,A281,en,False,False,False,False,False,41.260694,13.7486259,Minturno,False,13,sale,"{'hasParkingSpace': True, 'isParkingSpaceIncludedInPrice': True}",130000.0,1182.0,12696018,flat,Latina,4,True,110.0,good,"{'subtitle': 'Minturno', 'title': 'Piso en Via cavallerizza s/n'}",https://img3.idealista.it/blur/WEB_LISTING/0/id.pro.it.image.master/cf/87/87/114027329.jpg,https://www.idealista.it/immobile/12696018/
210,10,Trivento,1,it,"{'typology': 'chalet', 'subTypology': 'independantHouse'}",594969,False,V/652 (55023674),,False,False,,False,False,41.7792169,14.5534436,Trivento,False,16,sale,,50000.0,556.0,16171495,chalet,Campobasso,4,False,90.0,,"{'subtitle': 'Trivento', 'title': 'Casa independiente'}",https://img3.idealista.it/blur/WEB_LISTING/0/id.pro.it.image.master/a5/40/01/191453472.jpg,https://www.idealista.it/immobile/16171495/
211,11,Minturno,2,it,{'typology': 'flat'},594962,False,01-605,,False,False,,False,False,41.26048,13.74807,Minturno,False,10,sale,,180000.0,1059.0,16273794,flat,Latina,3,False,170.0,,"{'subtitle': 'Minturno', 'title': 'Piso'}",https://img3.idealista.it/blur/WEB_LISTING/0/id.pro.it.image.master/47/c2/09/193199562.jpg,https://www.idealista.it/immobile/16273794/
212,12,Castelforte,2,it,"{'typology': 'chalet', 'subTypology': 'independantHouse'}",594954,False,2429,,False,False,,False,False,41.3020791,13.8211876,Castelforte,False,28,sale,,26000.0,520.0,17337209,chalet,Latina,3,False,50.0,good,"{'subtitle': 'Castelforte', 'title': 'Casa independiente'}",https://img3.idealista.it/blur/WEB_LISTING/0/id.pro.it.image.master/5f/e5/e4/213634366.jpg,https://www.idealista.it/immobile/17337209/
213,13,Via marconi s/n,1,it,{'typology': 'flat'},594953,False,A334,2,False,False,False,False,False,41.3011682,13.8195769,Castelforte,False,8,sale,,110000.0,1209.0,16537965,flat,Latina,3,True,91.0,good,"{'subtitle': 'Castelforte', 'title': 'Piso en Via marconi s/n'}",https://img3.idealista.it/blur/WEB_LISTING/0/id.pro.it.image.master/91/85/26/197769836.jpg,https://www.idealista.it/immobile/16537965/
214,14,Minturno,1,it,{'typology': 'flat'},594920,False,01-802,,False,False,,True,False,41.26118,13.74847,Minturno,False,8,sale,,170000.0,2615.0,14447440,flat,Latina,3,False,65.0,,"{'subtitle': 'Minturno', 'title': 'Piso'}",https://img3.idealista.it/blur/WEB_LISTING/0/id.pro.it.image.master/8f/82/96/151029696.jpg,https://www.idealista.it/immobile/14447440/
215,15,Montenero di Bisaccia,1,it,"{'typology': 'chalet', 'subTypology': 'independantHouse'}",594910,False,RIF.214 (54380491),,False,False,,False,False,41.9560771,14.7823772,Montenero di Bisaccia,False,8,sale,,30000.0,400.0,13698980,chalet,Campobasso,4,False,75.0,good,"{'subtitle': 'Montenero di Bisaccia', 'title': 'Casa independiente'}",https://img3.idealista.it/blur/WEB_LISTING/0/id.pro.it.image.master/6b/3e/96/154684899.jpg,https://www.idealista.it/immobile/13698980/
216,16,Montenero di Bisaccia,1,it,"{'typology': 'countryHouse', 'subTypology': 'casaDePueblo'}",594895,False,0475,,False,False,,False,False,41.956553,14.7827273,Montenero di Bisaccia,False,11,sale,,35000.0,583.0,17343954,countryHouse,Campobasso,4,False,60.0,renew,"{'subtitle': 'Montenero di Bisaccia', 'title': 'Casa de pueblo'}",https://img3.idealista.it/blur/WEB_LISTING/0/id.pro.it.image.master/03/62/3f/213750506.jpg,https://www.idealista.it/immobile/17343954/
217,17,veterinella,2,it,"{'typology': 'chalet', 'subTypology': 'terracedHouse'}",594895,False,Cp0116,,False,False,,False,False,41.2827187,13.7861302,Santi Cosma e Damiano,False,13,sale,,85000.0,773.0,12697589,chalet,Latina,5,False,110.0,good,"{'subtitle': 'Santi Cosma e Damiano', 'title': 'Chalet adosado en veterinella'}",https://img3.idealista.it/blur/WEB_LISTING/0/id.pro.it.image.master/4f/9f/ab/114049144.jpg,https://www.idealista.it/immobile/12697589/
218,18,Castelforte,3,it,{'typology': 'countryHouse'},594890,False,D982,,False,False,,False,False,41.3019588,13.8197189,Castelforte,False,50,sale,,320000.0,1280.0,17749082,countryHouse,Latina,10,False,250.0,good,"{'subtitle': 'Castelforte', 'title': 'Casa rural'}",https://img3.idealista.it/blur/WEB_LISTING/0/id.pro.it.image.master/a6/9d/21/222221149.jpg,https://www.idealista.it/immobile/17749082/
219,19,Via Carlo Alberto s/n,2,it,"{'typology': 'chalet', 'subTypology': 'terracedHouse'}",594881,False,500GF,en,False,False,,False,False,41.954728,14.7802295,Montenero di Bisaccia,False,20,sale,"{'hasParkingSpace': True, 'isParkingSpaceIncludedInPrice': True}",210000.0,2211.0,16652893,chalet,Campobasso,3,True,95.0,,"{'subtitle': 'Montenero di Bisaccia', 'title': 'Chalet adosado en Via Carlo Alberto s/n'}",https://img3.idealista.it/blur/WEB_LISTING/0/id.pro.it.image.master/fe/02/5e/199836964.jpg,https://www.idealista.it/immobile/16652893/
